id,country,location_name,latitude,longitude,timezone
1,Afghanistan,Kabul,34.52,69.18,Asia/Kabul
2,Albania,Tirana,41.33,19.82,Europe/Tirane
3,Algeria,Algiers,36.76,3.05,Africa/Algiers
4,Andorra,Andorra La Vella,42.5,1.52,Europe/Andorra
5,Angola,Luanda,-8.84,13.23,Africa/Luanda
6,Antigua and Barbuda,Saint John's,17.12,-61.85,America/Antigua
7,Argentina,Buenos Aires,-34.59,-58.67,America/Argentina/Buenos_Aires
8,Armenia,Yerevan,40.18,44.51,Asia/Yerevan
9,Australia,Canberra,-35.28,149.22,Australia/Sydney
10,Austria,Vienna,48.2,16.37,Europe/Vienna
11,Azerbaijan,Baku,40.4,49.88,Asia/Baku
12,Bahamas,Nassau,25.08,-77.35,America/Nassau
13,Bahrain,Manama,26.24,50.58,Asia/Bahrain
14,Bangladesh,Dhaka,23.72,90.41,Asia/Dhaka
15,Barbados,Bridgetown,13.1,-59.62,America/Barbados
16,Belarus,Minsk,53.9,27.57,Europe/Minsk
17,Belgium,Brussels,50.83,4.33,Europe/Brussels
18,Belize,Belmopan,17.25,-88.77,America/Belize
19,Benin,Porto-Novo,6.48,2.62,Africa/Porto-Novo
20,Bhutan,Thimphu,27.48,89.6,Asia/Thimphu
21,Bolivia,Sucre,-19.04,-65.26,America/La_Paz
22,Bosnia and Herzegovina,Sarajevo,43.85,18.38,Europe/Sarajevo
23,Botswana,Gaborone,-24.65,25.91,Africa/Gaborone
24,Brazil,Bras,-2.08,-58.17,America/Manaus
25,Brunei Darussalam,Bandar Seri Begawan,4.88,114.93,Asia/Brunei
26,Bulgaria,Sofia,42.68,23.32,Europe/Sofia
27,Burkina Faso,Ouagadougou,12.37,-1.52,Africa/Ouagadougou
28,Burundi,Bujumbura,-3.38,29.36,Africa/Bujumbura
29,Madagascar,Ivory,-24.37,46.45,Indian/Antananarivo
30,Cape Verde,Praia,14.93,-23.51,Atlantic/Cape_Verde
31,Cambodia,Phnom Penh,11.55,104.92,Asia/Phnom_Penh
32,Cameroon,Bafoussam,5.47,10.42,Africa/Douala
33,Canada,Ottawa,45.42,-75.7,America/Toronto
34,Central African Republic,Bangui,4.37,18.58,Africa/Bangui
35,Chad,N'djamena,12.11,15.05,Africa/Douala
36,Chile,Santiago,-33.45,-70.67,America/Santiago
37,China,Beijing,39.93,116.39,Asia/Shanghai
38,Bulgaria,Bogot,43.32,24.7,Europe/Sofia
39,Comoros,Moroni,-11.7,43.24,Indian/Comoro
40,Congo,Brazzaville,-4.26,15.28,Africa/Brazzaville
41,Costa Rica,San Juan,9.97,-84.08,America/Costa_Rica
42,Croatia,Zagreb,45.8,16.0,Europe/Zagreb
43,Cuba,Havana,23.13,-82.36,America/Havana
44,Cyprus,Nicosia,35.17,33.37,Asia/Nicosia
45,Czech Republic,Prague,50.08,14.47,Europe/Prague
46,Democratic Republic of Congo,Kinshasa,-4.3,15.3,Africa/Brazzaville
47,Denmark,Copenhagen,55.67,12.58,Europe/Copenhagen
48,Djibouti,Djibouti,11.6,43.15,Africa/Djibouti
49,Dominica,Roseau,15.3,-61.4,America/Dominica
50,Dominican Republic,Santo Domingo,18.47,-69.9,America/Santo_Domingo
51,Ecuador,Quito,-0.22,-78.5,America/Guayaquil
52,Egypt,Cairo,30.05,31.25,Africa/Cairo
53,El Salvador,San Salvador,13.71,-89.2,America/El_Salvador
54,Equatorial Guinea,Malabo,3.75,8.78,Africa/Malabo
55,Eritrea,Asmara,15.33,38.93,Africa/Asmara
56,Estonia,Tallinn,59.43,24.73,Europe/Tallinn
57,Swaziland,Mbabane,-26.32,31.13,Africa/Mbabane
58,Ethiopia,Addis Ababa,9.03,38.7,Africa/Addis_Ababa
59,Fiji Islands,Suva,-18.13,178.42,Pacific/Fiji
60,Finland,Helsinki,60.18,24.93,Europe/Helsinki
61,France,Paris,48.87,2.33,Europe/Paris
62,Gabon,Libreville,0.38,9.45,Africa/Libreville
63,Gambia,Banjul,13.45,-16.58,Africa/Banjul
64,Georgia,Tbilisi,41.73,44.79,Asia/Tbilisi
65,Germany,Berlin,52.52,13.4,Europe/Berlin
66,Ghana,Accra,5.55,-0.22,Africa/Accra
67,Greece,Athens,37.98,23.72,Europe/Athens
68,Grenada,Saint George's,12.05,-61.75,America/Grenada
69,Guatemala,Guatemala City,14.62,-90.53,America/Guatemala
70,Guinea,Conakry,9.51,-13.71,Africa/Conakry
71,Guinea-Bissau,Bissau,11.85,-15.58,Africa/Bissau
72,Guyana,Georgetown,6.8,-58.17,America/Guyana
73,Haiti,Port-Au-Prince,18.54,-72.34,America/Port-au-Prince
74,Vatican City,Vatican City,41.9,12.45,Europe/Rome
75,Honduras,Tegucigalpa,14.1,-87.22,America/Tegucigalpa
76,Hungary,Budapest,47.5,19.08,Europe/Budapest
77,Iceland,Hella,63.83,-20.4,Atlantic/Reykjavik
78,India,New Delhi,28.6,77.2,Asia/Kolkata
79,Indonesia,Jakarta,-6.21,106.85,Asia/Jakarta
80,Iran,Tehran,35.73,51.33,Asia/Tehran
81,Iraq,Baghdad,33.34,44.39,Asia/Baghdad
82,Ireland,Dublin,53.33,-6.25,Europe/Dublin
83,Israel,Jerusalem,31.78,35.23,Asia/Jerusalem
84,Italy,Rome,41.9,12.48,Europe/Rome
85,Jamaica,Norman Gardens,17.97,-76.75,America/Jamaica
86,Japan,Tokyo,35.69,139.69,Asia/Tokyo
87,Jordan,Amman,31.95,35.93,Asia/Amman
88,Kazakhstan,Astana,51.18,71.43,Asia/Almaty
89,Kenya,Nairobi,-1.28,36.82,Africa/Nairobi
90,Kiribati,Tarawa,-0.88,169.53,Pacific/Tarawa
91,Kuwait,Kuwait City,29.37,47.96,Asia/Kuwait
92,Kyrghyzstan,Bishkek,42.87,74.6,Asia/Bishkek
93,Indonesia,Laos,-8.18,114.32,Asia/Jakarta
94,Latvia,Riga,56.95,24.1,Europe/Riga
95,Lebanon,Beirut,33.87,35.51,Asia/Beirut
96,Lesotho,Maseru,-29.32,27.48,Africa/Johannesburg
97,Liberia,Monrovia,6.31,-10.8,Africa/Monrovia
98,Thailand,Nan,18.78,100.78,Asia/Bangkok
99,Liechtenstein,Vaduz,47.13,9.52,Europe/Vaduz
100,Lithuania,Vilnius,54.68,25.32,Europe/Vilnius
101,Luxembourg,Luxembourg,49.61,6.13,Europe/Luxembourg
102,Madagascar,Antananarivo,-18.92,47.52,Indian/Antananarivo
103,Malawi,Lilongwe,-13.98,33.78,Africa/Blantyre
104,Malaysia,Kuala Lumpur,3.17,101.7,Asia/Kuala_Lumpur
105,Maldives,Farukolhufunadhoo,6.15,73.27,Indian/Maldives
106,Mali,Bamako,12.65,-8.0,Africa/Bamako
107,Malta,Valletta,35.9,14.51,Europe/Malta
108,Marshall Islands,Majuro,7.1,171.38,Pacific/Majuro
109,Mauritania,Nouakchott,18.09,-15.98,Africa/Nouakchott
110,Mauritius,Port Louis,-20.16,57.5,Indian/Mauritius
111,Mexico,Mexico City,19.43,-99.13,America/Mexico_City
112,Micronesia,Palikir,6.92,158.15,Pacific/Pohnpei
113,Russia,Chi-Chi-Erh,51.7,94.45,Asia/Krasnoyarsk
114,Monaco,Monaco,43.73,7.42,Europe/Monaco
115,Mongolia,Ulaanbaatar,47.92,106.92,Asia/Ulaanbaatar
116,Montenegro,Podgorica,42.44,19.26,Europe/Podgorica
117,Morocco,Rabat,34.03,-6.84,Africa/Casablanca
118,Mozambique,Maputo,-25.97,32.59,Africa/Maputo
119,Myanmar,Pathein,16.78,94.73,Asia/Yangon
120,Namibia,Windhoek,-22.57,17.08,Africa/Windhoek
121,Turkey,Yaren,39.55,27.62,Europe/Istanbul
122,Nepal,Kathmandu,27.72,85.32,Asia/Kathmandu
123,Netherlands,Amsterdam,52.37,4.89,Europe/Amsterdam
124,New Zealand,Wellington,-41.3,174.78,Pacific/Auckland
125,Nicaragua,Managua,12.15,-86.27,America/Managua
126,Niger,Niamey,13.52,2.12,Africa/Niamey
127,Nigeria,Abuja,9.18,7.18,Africa/Lagos
128,North Korea,Pyongyang,39.02,125.75,Asia/Pyongyang
129,Macedonia,Skopje,42.0,21.43,Europe/Skopje
130,Norway,Oslo,59.92,10.75,Europe/Oslo
131,Oman,Muscat,23.61,58.59,Asia/Muscat
132,Pakistan,Islamabad,33.7,73.17,Asia/Karachi
133,Palau,Adkip,7.36,134.51,Pacific/Palau
134,Bolivia,National,-11.18,-67.08,America/La_Paz
135,Panama,Panama City,8.97,-79.53,America/Panama
136,Papua New Guinea,Port Moresby,-9.46,147.19,Pacific/Port_Moresby
137,Paraguay,Carreria,-21.55,-58.12,America/Asuncion
138,Peru,Lima,-12.05,-77.05,America/Lima
139,Philippines,Manila,14.6,120.98,Asia/Manila
140,Poland,Warsaw,52.25,21.0,Europe/Warsaw
141,Portugal,Lisbon,38.72,-9.13,Europe/Lisbon
142,Qatar,Doha,25.29,51.53,Asia/Qatar
143,Romania,Bucharest,44.43,26.1,Europe/Bucharest
144,Russia,Moscow,55.75,37.62,Europe/Moscow
145,Rwanda,Kigali,-1.95,30.06,Africa/Kigali
146,Saint Kitts and Nevis,Basseterre,17.3,-62.72,America/St_Kitts
147,Saint Lucia,Castries,14.0,-61.0,America/St_Lucia
148,Saint Vincent and the Grenadines,Kingstown,13.13,-61.22,America/St_Vincent
149,Samoa,Apia,-13.83,-171.73,Pacific/Apia
150,San Marino,San Marino,43.93,12.45,Europe/Rome
151,Belgium,'S-Gravenwezel,51.27,4.55,Europe/Brussels
152,Saudi Arabia,Riyadh,24.64,46.77,Asia/Riyadh
153,Senegal,Dakar,14.67,-17.44,Africa/Dakar
154,Serbia,Belgrade,44.8,20.47,Europe/Belgrade
155,Seychelles Islands,Victoria,-4.62,55.45,Indian/Mahe
156,Sierra Leone,Freetown,8.49,-13.23,Africa/Freetown
157,Singapore,Singapore,1.29,103.86,Asia/Singapore
158,Slovakia,Bratislava,48.15,17.12,Europe/Bratislava
159,Slovenia,Ljubljana,46.06,14.51,Europe/Ljubljana
160,Solomon Islands,Honiara,-9.43,159.95,Pacific/Guadalcanal
161,Somalia,Mogadishu,2.07,45.37,Africa/Mogadishu
162,South Africa,Pretoria,-25.75,28.19,Africa/Johannesburg
163,South Korea,Seoul,37.57,127.0,Asia/Seoul
164,Sudan,Juba,12.15,24.45,Africa/Khartoum
165,Spain,Madrid,40.4,-3.68,Europe/Madrid
166,Sri Lanka,Colombo,6.93,79.85,Asia/Colombo
167,Sudan,Khartoum,15.59,32.53,Africa/Khartoum
168,Suriname,Paramaribo,5.83,-55.17,America/Paramaribo
169,Sweden,Stockholm,59.33,18.05,Europe/Stockholm
170,Switzerland,Bern,46.92,7.47,Europe/Zurich
171,Syria,Damascus,33.5,36.3,Asia/Damascus
172,Tajikistan,Dushanbe,38.56,68.77,Asia/Dushanbe
173,Tanzania,Dodoma,-6.18,35.75,Africa/Dar_es_Salaam
174,Thailand,Bangkok,13.75,100.52,Asia/Bangkok
175,Indonesia,Murong Timor,-7.56,112.27,Asia/Jakarta
176,Bulgaria,Lom,43.81,23.24,Europe/Bucharest
177,Tonga,Nuku`Aloia,-21.13,-175.2,Pacific/Tongatapu
178,Trinidad and Tobago,Port Of Spain,10.65,-61.52,America/Port_of_Spain
179,Tunisia,Tunis,36.8,10.18,Africa/Tunis
180,Turkey,Ankara,39.93,32.86,Europe/Istanbul
181,Turkmenistan,Ashgabat,37.95,58.38,Asia/Ashgabat
182,Tuvalu,Funafuti,-8.52,179.22,Pacific/Funafuti
183,Uganda,Kampala,0.32,32.57,Africa/Kampala
184,Ukraine,Lviv,49.83,24.0,Europe/Kiev
185,United Arab Emirates,Abu Dhabi,24.47,54.37,Asia/Dubai
186,United Kingdom,London,51.52,-0.11,Europe/London
187,United States of America,Washington Park,46.6,-120.49,America/Los_Angeles
188,Uruguay,Montevideo,-34.86,-56.17,America/Montevideo
189,Uzbekistan,Tashkent,41.32,69.25,Asia/Tashkent
190,Vanuatu,Port Vila,-17.73,168.32,Pacific/Efate
191,Venezuela,Caracas,10.5,-66.92,America/Caracas
192,Vietnam,Hanoi,21.03,105.85,Asia/Bangkok
193,Yemen,Sanaa,15.35,44.21,Asia/Aden
194,Zambia,Lusaka,-15.42,28.28,Africa/Lusaka
195,Zimbabwe,Harare,-17.82,31.04,Africa/Harare
196,Afghanistan,Kabul,34.52,69.18,Asia/Kabul
197,Albania,Tirana,41.33,19.82,Europe/Tirane
198,Algeria,Algiers,36.76,3.05,Africa/Algiers
199,Andorra,Andorra La Vella,42.5,1.52,Europe/Andorra
200,Angola,Luanda,-8.84,13.23,Africa/Luanda
201,Antigua and Barbuda,Saint John's,17.12,-61.85,America/Antigua
202,Argentina,Buenos Aires,-34.59,-58.67,America/Argentina/Buenos_Aires
203,Armenia,Yerevan,40.18,44.51,Asia/Yerevan
204,Australia,Canberra,-35.28,149.22,Australia/Sydney
205,Austria,Vienna,48.2,16.37,Europe/Vienna
206,Azerbaijan,Baku,40.4,49.88,Asia/Baku
207,Bahamas,Nassau,25.08,-77.35,America/Nassau
208,Bahrain,Manama,26.24,50.58,Asia/Bahrain
209,Bangladesh,Dhaka,23.72,90.41,Asia/Dhaka
210,Barbados,Bridgetown,13.1,-59.62,America/Barbados
211,Belarus,Minsk,53.9,27.57,Europe/Minsk
212,Belgium,Brussels,50.83,4.33,Europe/Brussels
213,Belize,Belmopan,17.25,-88.77,America/Belize
214,Benin,Porto-Novo,6.48,2.62,Africa/Porto-Novo
215,Bhutan,Thimphu,27.48,89.6,Asia/Thimphu
216,Bolivia,Sucre,-19.04,-65.26,America/La_Paz
217,Bosnia and Herzegovina,Sarajevo,43.85,18.38,Europe/Sarajevo
218,Botswana,Gaborone,-24.65,25.91,Africa/Gaborone
219,Brazil,Bras,-2.08,-58.17,America/Manaus
220,Brunei Darussalam,Bandar Seri Begawan,4.88,114.93,Asia/Brunei
221,Bulgaria,Sofia,42.68,23.32,Europe/Sofia
222,Burkina Faso,Ouagadougou,12.37,-1.52,Africa/Ouagadougou
223,Burundi,Bujumbura,-3.38,29.36,Africa/Bujumbura
224,Madagascar,Ivory,-24.37,46.45,Indian/Antananarivo
225,Cape Verde,Praia,14.93,-23.51,Atlantic/Cape_Verde
226,Cambodia,Phnom Penh,11.55,104.92,Asia/Phnom_Penh
227,Cameroon,Bafoussam,5.47,10.42,Africa/Douala
228,Canada,Ottawa,45.42,-75.7,America/Toronto
229,Central African Republic,Bangui,4.37,18.58,Africa/Bangui
230,Chad,N'djamena,12.11,15.05,Africa/Douala
231,Chile,Santiago,-33.45,-70.67,America/Santiago
232,China,Beijing,39.93,116.39,Asia/Shanghai
233,Bulgaria,Bogot,43.32,24.7,Europe/Sofia
234,Comoros,Moroni,-11.7,43.24,Indian/Comoro
235,Congo,Brazzaville,-4.26,15.28,Africa/Brazzaville
236,Costa Rica,San Juan,9.97,-84.08,America/Costa_Rica
237,Croatia,Zagreb,45.8,16.0,Europe/Zagreb
238,Cuba,Havana,23.13,-82.36,America/Havana
239,Cyprus,Nicosia,35.17,33.37,Asia/Nicosia
240,Czech Republic,Prague,50.08,14.47,Europe/Prague
241,Democratic Republic of Congo,Kinshasa,-4.3,15.3,Africa/Brazzaville
242,Denmark,Copenhagen,55.67,12.58,Europe/Copenhagen
243,Djibouti,Djibouti,11.6,43.15,Africa/Djibouti
244,Dominica,Roseau,15.3,-61.4,America/Dominica
245,Dominican Republic,Santo Domingo,18.47,-69.9,America/Santo_Domingo
246,Ecuador,Quito,-0.22,-78.5,America/Guayaquil
247,Egypt,Cairo,30.05,31.25,Africa/Cairo
248,El Salvador,San Salvador,13.71,-89.2,America/El_Salvador
249,Equatorial Guinea,Malabo,3.75,8.78,Africa/Malabo
250,Eritrea,Asmara,15.33,38.93,Africa/Asmara
251,Estonia,Tallinn,59.43,24.73,Europe/Tallinn
252,Swaziland,Mbabane,-26.32,31.13,Africa/Mbabane
253,Ethiopia,Addis Ababa,9.03,38.7,Africa/Addis_Ababa
254,Fiji Islands,Suva,-18.13,178.42,Pacific/Fiji
255,Finland,Helsinki,60.18,24.93,Europe/Helsinki
256,France,Paris,48.87,2.33,Europe/Paris
257,Gabon,Libreville,0.38,9.45,Africa/Libreville
258,Gambia,Banjul,13.45,-16.58,Africa/Banjul
259,Georgia,Tbilisi,41.73,44.79,Asia/Tbilisi
260,Germany,Berlin,52.52,13.4,Europe/Berlin
261,Ghana,Accra,5.55,-0.22,Africa/Accra
262,Greece,Athens,37.98,23.72,Europe/Athens
263,Grenada,Saint George's,12.05,-61.75,America/Grenada
264,Guatemala,Guatemala City,14.62,-90.53,America/Guatemala
265,Guinea,Conakry,9.51,-13.71,Africa/Conakry
266,Guinea-Bissau,Bissau,11.85,-15.58,Africa/Bissau
267,Guyana,Georgetown,6.8,-58.17,America/Guyana
268,Haiti,Port-Au-Prince,18.54,-72.34,America/Port-au-Prince
269,Vatican City,Vatican City,41.9,12.45,Europe/Rome
270,Honduras,Tegucigalpa,14.1,-87.22,America/Tegucigalpa
271,Hungary,Budapest,47.5,19.08,Europe/Budapest
272,Iceland,Hella,63.83,-20.4,Atlantic/Reykjavik
273,India,New Delhi,28.6,77.2,Asia/Kolkata
274,Indonesia,Jakarta,-6.21,106.85,Asia/Jakarta
275,Iran,Tehran,35.73,51.33,Asia/Tehran
276,Iraq,Baghdad,33.34,44.39,Asia/Baghdad
277,Ireland,Dublin,53.33,-6.25,Europe/Dublin
278,Israel,Jerusalem,31.78,35.23,Asia/Jerusalem
279,Italy,Rome,41.9,12.48,Europe/Rome
280,Jamaica,Norman Gardens,17.97,-76.75,America/Jamaica
281,Japan,Tokyo,35.69,139.69,Asia/Tokyo
282,Jordan,Amman,31.95,35.93,Asia/Amman
283,Kazakhstan,Astana,51.18,71.43,Asia/Almaty
284,Kenya,Nairobi,-1.28,36.82,Africa/Nairobi
285,Kiribati,Tarawa,-0.88,169.53,Pacific/Tarawa
286,Kuwait,Kuwait City,29.37,47.96,Asia/Kuwait
287,Kyrghyzstan,Bishkek,42.87,74.6,Asia/Bishkek
288,Indonesia,Laos,-8.18,114.32,Asia/Jakarta
289,Latvia,Riga,56.95,24.1,Europe/Riga
290,Lebanon,Beirut,33.87,35.51,Asia/Beirut
291,Lesotho,Maseru,-29.32,27.48,Africa/Johannesburg
292,Liberia,Monrovia,6.31,-10.8,Africa/Monrovia
293,Thailand,Nan,18.78,100.78,Asia/Bangkok
294,Liechtenstein,Vaduz,47.13,9.52,Europe/Vaduz
295,Lithuania,Vilnius,54.68,25.32,Europe/Vilnius
296,Luxembourg,Luxembourg,49.61,6.13,Europe/Luxembourg
297,Madagascar,Antananarivo,-18.92,47.52,Indian/Antananarivo
298,Malawi,Lilongwe,-13.98,33.78,Africa/Blantyre
299,Malaysia,Kuala Lumpur,3.17,101.7,Asia/Kuala_Lumpur
300,Maldives,Farukolhufunadhoo,6.15,73.27,Indian/Maldives
301,Mali,Bamako,12.65,-8.0,Africa/Bamako
302,Malta,Valletta,35.9,14.51,Europe/Malta
303,Marshall Islands,Majuro,7.1,171.38,Pacific/Majuro
304,Mauritania,Nouakchott,18.09,-15.98,Africa/Nouakchott
305,Mauritius,Port Louis,-20.16,57.5,Indian/Mauritius
306,Mexico,Mexico City,19.43,-99.13,America/Mexico_City
307,Micronesia,Palikir,6.92,158.15,Pacific/Pohnpei
308,Russia,Chi-Chi-Erh,51.7,94.45,Asia/Krasnoyarsk
309,Monaco,Monaco,43.73,7.42,Europe/Monaco
310,Mongolia,Ulaanbaatar,47.92,106.92,Asia/Ulaanbaatar
311,Montenegro,Podgorica,42.44,19.26,Europe/Podgorica
312,Morocco,Rabat,34.03,-6.84,Africa/Casablanca
313,Mozambique,Maputo,-25.97,32.59,Africa/Maputo
314,Myanmar,Pathein,16.78,94.73,Asia/Yangon
315,Namibia,Windhoek,-22.57,17.08,Africa/Windhoek
316,Turkey,Yaren,39.55,27.62,Europe/Istanbul
317,Nepal,Kathmandu,27.72,85.32,Asia/Kathmandu
318,Netherlands,Amsterdam,52.37,4.89,Europe/Amsterdam
319,New Zealand,Wellington,-41.3,174.78,Pacific/Auckland
320,Nicaragua,Managua,12.15,-86.27,America/Managua
321,Niger,Niamey,13.52,2.12,Africa/Niamey
322,Nigeria,Abuja,9.18,7.18,Africa/Lagos
323,North Korea,Pyongyang,39.02,125.75,Asia/Pyongyang
324,Macedonia,Skopje,42.0,21.43,Europe/Skopje
325,Norway,Oslo,59.92,10.75,Europe/Oslo
326,Oman,Muscat,23.61,58.59,Asia/Muscat
327,Pakistan,Islamabad,33.7,73.17,Asia/Karachi
328,Palau,Adkip,7.36,134.51,Pacific/Palau
329,Bolivia,National,-11.18,-67.08,America/La_Paz
330,Panama,Panama City,8.97,-79.53,America/Panama
331,Papua New Guinea,Port Moresby,-9.46,147.19,Pacific/Port_Moresby
332,Paraguay,Carreria,-21.55,-58.12,America/Asuncion
333,Peru,Lima,-12.05,-77.05,America/Lima
334,Philippines,Manila,14.6,120.98,Asia/Manila
335,Poland,Warsaw,52.25,21.0,Europe/Warsaw
336,Portugal,Lisbon,38.72,-9.13,Europe/Lisbon
337,Qatar,Doha,25.29,51.53,Asia/Qatar
338,Romania,Bucharest,44.43,26.1,Europe/Bucharest
339,Russia,Moscow,55.75,37.62,Europe/Moscow
340,Rwanda,Kigali,-1.95,30.06,Africa/Kigali
341,Saint Kitts and Nevis,Basseterre,17.3,-62.72,America/St_Kitts
342,Saint Lucia,Castries,14.0,-61.0,America/St_Lucia
343,Saint Vincent and the Grenadines,Kingstown,13.13,-61.22,America/St_Vincent
344,Samoa,Apia,-13.83,-171.73,Pacific/Apia
345,San Marino,San Marino,43.93,12.45,Europe/Rome
346,Belgium,'S-Gravenwezel,51.27,4.55,Europe/Brussels
347,Saudi Arabia,Riyadh,24.64,46.77,Asia/Riyadh
348,Senegal,Dakar,14.67,-17.44,Africa/Dakar
349,Serbia,Belgrade,44.8,20.47,Europe/Belgrade
350,Seychelles Islands,Victoria,-4.62,55.45,Indian/Mahe
351,Sierra Leone,Freetown,8.49,-13.23,Africa/Freetown
352,Singapore,Singapore,1.29,103.86,Asia/Singapore
353,Slovakia,Bratislava,48.15,17.12,Europe/Bratislava
354,Slovenia,Ljubljana,46.06,14.51,Europe/Ljubljana
355,Solomon Islands,Honiara,-9.43,159.95,Pacific/Guadalcanal
356,Somalia,Mogadishu,2.07,45.37,Africa/Mogadishu
357,South Africa,Pretoria,-25.75,28.19,Africa/Johannesburg
358,South Korea,Seoul,37.57,127.0,Asia/Seoul
359,Sudan,Juba,12.15,24.45,Africa/Khartoum
360,Spain,Madrid,40.4,-3.68,Europe/Madrid
361,Sri Lanka,Colombo,6.93,79.85,Asia/Colombo
362,Sudan,Khartoum,15.59,32.53,Africa/Khartoum
363,Suriname,Paramaribo,5.83,-55.17,America/Paramaribo
364,Sweden,Stockholm,59.33,18.05,Europe/Stockholm
365,Switzerland,Bern,46.92,7.47,Europe/Zurich
366,Syria,Damascus,33.5,36.3,Asia/Damascus
367,Tajikistan,Dushanbe,38.56,68.77,Asia/Dushanbe
368,Tanzania,Dodoma,-6.18,35.75,Africa/Dar_es_Salaam
369,Thailand,Bangkok,13.75,100.52,Asia/Bangkok
370,Indonesia,Murong Timor,-7.56,112.27,Asia/Jakarta
371,Bulgaria,Lom,43.81,23.24,Europe/Bucharest
372,Tonga,Nuku`Aloia,-21.13,-175.2,Pacific/Tongatapu
373,Trinidad and Tobago,Port Of Spain,10.65,-61.52,America/Port_of_Spain
374,Tunisia,Tunis,36.8,10.18,Africa/Tunis
375,Turkey,Ankara,39.93,32.86,Europe/Istanbul
376,Turkmenistan,Ashgabat,37.95,58.38,Asia/Ashgabat
377,Tuvalu,Funafuti,-8.52,179.22,Pacific/Funafuti
378,Uganda,Kampala,0.32,32.57,Africa/Kampala
379,Ukraine,Lviv,49.83,24.0,Europe/Kiev
380,United Arab Emirates,Abu Dhabi,24.47,54.37,Asia/Dubai
381,United Kingdom,London,51.52,-0.11,Europe/London
382,United States of America,Washington Park,46.6,-120.49,America/Los_Angeles
383,Uruguay,Montevideo,-34.86,-56.17,America/Montevideo
384,Uzbekistan,Tashkent,41.32,69.25,Asia/Tashkent
385,Vanuatu,Port Vila,-17.73,168.32,Pacific/Efate
386,Venezuela,Caracas,10.5,-66.92,America/Caracas
387,Vietnam,Hanoi,21.03,105.85,Asia/Bangkok
388,Yemen,Sanaa,15.35,44.21,Asia/Aden
389,Zambia,Lusaka,-15.42,28.28,Africa/Lusaka
390,Zimbabwe,Harare,-17.82,31.04,Africa/Harare
391,Afghanistan,Kabul,34.52,69.18,Asia/Kabul
392,Albania,Tirana,41.33,19.82,Europe/Tirane
393,Algeria,Algiers,36.76,3.05,Africa/Algiers
394,Andorra,Andorra La Vella,42.5,1.52,Europe/Andorra
395,Angola,Luanda,-8.84,13.23,Africa/Luanda
396,Antigua and Barbuda,Saint John's,17.12,-61.85,America/Antigua
397,Argentina,Buenos Aires,-34.59,-58.67,America/Argentina/Buenos_Aires
398,Armenia,Yerevan,40.18,44.51,Asia/Yerevan
399,Australia,Canberra,-35.28,149.22,Australia/Sydney
400,Austria,Vienna,48.2,16.37,Europe/Vienna
401,Azerbaijan,Baku,40.4,49.88,Asia/Baku
402,Bahamas,Nassau,25.08,-77.35,America/Nassau
403,Bahrain,Manama,26.24,50.58,Asia/Bahrain
404,Bangladesh,Dhaka,23.72,90.41,Asia/Dhaka
405,Barbados,Bridgetown,13.1,-59.62,America/Barbados
406,Belarus,Minsk,53.9,27.57,Europe/Minsk
407,Belgium,Brussels,50.83,4.33,Europe/Brussels
408,Belize,Belmopan,17.25,-88.77,America/Belize
409,Benin,Porto-Novo,6.48,2.62,Africa/Porto-Novo
410,Bhutan,Thimphu,27.48,89.6,Asia/Thimphu
411,Bolivia,Sucre,-19.04,-65.26,America/La_Paz
412,Bosnia and Herzegovina,Sarajevo,43.85,18.38,Europe/Sarajevo
413,Botswana,Gaborone,-24.65,25.91,Africa/Gaborone
414,Brazil,Bras,-2.08,-58.17,America/Manaus
415,Brunei Darussalam,Bandar Seri Begawan,4.88,114.93,Asia/Brunei
416,Bulgaria,Sofia,42.68,23.32,Europe/Sofia
417,Burkina Faso,Ouagadougou,12.37,-1.52,Africa/Ouagadougou
418,Burundi,Bujumbura,-3.38,29.36,Africa/Bujumbura
419,Madagascar,Ivory,-24.37,46.45,Indian/Antananarivo
420,Cape Verde,Praia,14.93,-23.51,Atlantic/Cape_Verde
421,Cambodia,Phnom Penh,11.55,104.92,Asia/Phnom_Penh
422,Cameroon,Bafoussam,5.47,10.42,Africa/Douala
423,Canada,Ottawa,45.42,-75.7,America/Toronto
424,Central African Republic,Bangui,4.37,18.58,Africa/Bangui
425,Chad,N'djamena,12.11,15.05,Africa/Douala
426,Chile,Santiago,-33.45,-70.67,America/Santiago
427,China,Beijing,39.93,116.39,Asia/Shanghai
428,Bulgaria,Bogot,43.32,24.7,Europe/Sofia
429,Comoros,Moroni,-11.7,43.24,Indian/Comoro
430,Congo,Brazzaville,-4.26,15.28,Africa/Brazzaville
431,Costa Rica,San Juan,9.97,-84.08,America/Costa_Rica
432,Croatia,Zagreb,45.8,16.0,Europe/Zagreb
433,Cuba,Havana,23.13,-82.36,America/Havana
434,Cyprus,Nicosia,35.17,33.37,Asia/Famagusta
435,Czech Republic,Prague,50.08,14.47,Europe/Prague
436,Democratic Republic of Congo,Kinshasa,-4.3,15.3,Africa/Brazzaville
437,Denmark,Copenhagen,55.67,12.58,Europe/Copenhagen
438,Djibouti,Djibouti,11.6,43.15,Africa/Djibouti
439,Dominica,Roseau,15.3,-61.4,America/Dominica
440,Dominican Republic,Santo Domingo,18.47,-69.9,America/Santo_Domingo
441,Ecuador,Quito,-0.22,-78.5,America/Guayaquil
442,Egypt,Cairo,30.05,31.25,Africa/Cairo
443,El Salvador,San Salvador,13.71,-89.2,America/El_Salvador
444,Equatorial Guinea,Malabo,3.75,8.78,Africa/Malabo
445,Eritrea,Asmara,15.33,38.93,Africa/Asmara
446,Estonia,Tallinn,59.43,24.73,Europe/Tallinn
447,Swaziland,Mbabane,-26.32,31.13,Africa/Mbabane
448,Ethiopia,Addis Ababa,9.03,38.7,Africa/Addis_Ababa
449,Fiji Islands,Suva,-18.13,178.42,Pacific/Fiji
450,Finland,Helsinki,60.18,24.93,Europe/Helsinki
451,France,Paris,48.87,2.33,Europe/Paris
452,Gabon,Libreville,0.38,9.45,Africa/Libreville
453,Gambia,Banjul,13.45,-16.58,Africa/Banjul
454,Georgia,Tbilisi,41.73,44.79,Asia/Tbilisi
455,Germany,Berlin,52.52,13.4,Europe/Berlin
456,Ghana,Accra,5.55,-0.22,Africa/Accra
457,Greece,Athens,37.98,23.72,Europe/Athens
458,Grenada,Saint George's,12.05,-61.75,America/Grenada
459,Guatemala,Guatemala City,14.62,-90.53,America/Guatemala
460,Guinea,Conakry,9.51,-13.71,Africa/Conakry
461,Guinea-Bissau,Bissau,11.85,-15.58,Africa/Bissau
462,Guyana,Georgetown,6.8,-58.17,America/Guyana
463,Haiti,Port-Au-Prince,18.54,-72.34,America/Port-au-Prince
464,Vatican City,Vatican City,41.9,12.45,Europe/Rome
465,Honduras,Tegucigalpa,14.1,-87.22,America/Tegucigalpa
466,Hungary,Budapest,47.5,19.08,Europe/Budapest
467,Iceland,Hella,63.83,-20.4,Atlantic/Reykjavik
468,India,New Delhi,28.6,77.2,Asia/Kolkata
469,Indonesia,Jakarta,-6.21,106.85,Asia/Jakarta
470,Iran,Tehran,35.73,51.33,Asia/Tehran
471,Iraq,Baghdad,33.34,44.39,Asia/Baghdad
472,Ireland,Dublin,53.33,-6.25,Europe/Dublin
473,Israel,Jerusalem,31.78,35.23,Asia/Jerusalem
474,Italy,Rome,41.9,12.48,Europe/Rome
475,Jamaica,Norman Gardens,17.97,-76.75,America/Jamaica
476,Japan,Tokyo,35.69,139.69,Asia/Tokyo
477,Jordan,Amman,31.95,35.93,Asia/Amman
478,Kazakhstan,Astana,51.18,71.43,Asia/Almaty
479,Kenya,Nairobi,-1.28,36.82,Africa/Nairobi
480,Kiribati,Tarawa,-0.88,169.53,Pacific/Tarawa
481,Kuwait,Kuwait City,29.37,47.96,Asia/Kuwait
482,Kyrghyzstan,Bishkek,42.87,74.6,Asia/Bishkek
483,Indonesia,Laos,-8.18,114.32,Asia/Jakarta
484,Latvia,Riga,56.95,24.1,Europe/Riga
485,Lebanon,Beirut,33.87,35.51,Asia/Beirut
486,Lesotho,Maseru,-29.32,27.48,Africa/Johannesburg
487,Liberia,Monrovia,6.31,-10.8,Africa/Monrovia
488,Thailand,Nan,18.78,100.78,Asia/Bangkok
489,Liechtenstein,Vaduz,47.13,9.52,Europe/Vaduz
490,Lithuania,Vilnius,54.68,25.32,Europe/Vilnius
491,Luxembourg,Luxembourg,49.61,6.13,Europe/Luxembourg
492,Madagascar,Antananarivo,-18.92,47.52,Indian/Antananarivo
493,Malawi,Lilongwe,-13.98,33.78,Africa/Blantyre
494,Malaysia,Kuala Lumpur,3.17,101.7,Asia/Kuala_Lumpur
495,Maldives,Farukolhufunadhoo,6.15,73.27,Indian/Maldives
496,Mali,Bamako,12.65,-8.0,Africa/Bamako
497,Malta,Valletta,35.9,14.51,Europe/Malta
498,Marshall Islands,Majuro,7.1,171.38,Pacific/Majuro
499,Mauritania,Nouakchott,18.09,-15.98,Africa/Nouakchott
500,Mauritius,Port Louis,-20.16,57.5,Indian/Mauritius
501,Mexico,Mexico City,19.43,-99.13,America/Mexico_City
502,Micronesia,Palikir,6.92,158.15,Pacific/Pohnpei
503,Russia,Chi-Chi-Erh,51.7,94.45,Asia/Krasnoyarsk
504,Monaco,Monaco,43.73,7.42,Europe/Monaco
505,Mongolia,Ulaanbaatar,47.92,106.92,Asia/Ulaanbaatar
506,Montenegro,Podgorica,42.44,19.26,Europe/Podgorica
507,Morocco,Rabat,34.03,-6.84,Africa/Casablanca
508,Mozambique,Maputo,-25.97,32.59,Africa/Maputo
509,Myanmar,Pathein,16.78,94.73,Asia/Yangon
510,Namibia,Windhoek,-22.57,17.08,Africa/Windhoek
511,Turkey,Yaren,39.55,27.62,Europe/Istanbul
512,Nepal,Kathmandu,27.72,85.32,Asia/Kathmandu
513,Netherlands,Amsterdam,52.37,4.89,Europe/Amsterdam
514,New Zealand,Wellington,-41.3,174.78,Pacific/Auckland
515,Nicaragua,Managua,12.15,-86.27,America/Managua
516,Niger,Niamey,13.52,2.12,Africa/Niamey
517,Nigeria,Abuja,9.18,7.18,Africa/Lagos
518,North Korea,Pyongyang,39.02,125.75,Asia/Pyongyang
519,Macedonia,Skopje,42.0,21.43,Europe/Skopje
520,Norway,Oslo,59.92,10.75,Europe/Oslo
521,Oman,Muscat,23.61,58.59,Asia/Muscat
522,Pakistan,Islamabad,33.7,73.17,Asia/Karachi
523,Palau,Adkip,7.36,134.51,Pacific/Palau
524,Bolivia,National,-11.18,-67.08,America/La_Paz
525,Panama,Panama City,8.97,-79.53,America/Panama
526,Papua New Guinea,Port Moresby,-9.46,147.19,Pacific/Port_Moresby
527,Paraguay,Carreria,-21.55,-58.12,America/Asuncion
528,Peru,Lima,-12.05,-77.05,America/Lima
529,Philippines,Manila,14.6,120.98,Asia/Manila
530,Poland,Warsaw,52.25,21.0,Europe/Warsaw
531,Portugal,Lisbon,38.72,-9.13,Europe/Lisbon
532,Qatar,Doha,25.29,51.53,Asia/Qatar
533,Romania,Bucharest,44.43,26.1,Europe/Bucharest
534,Russia,Moscow,55.75,37.62,Europe/Moscow
535,Rwanda,Kigali,-1.95,30.06,Africa/Kigali
536,Saint Kitts and Nevis,Basseterre,17.3,-62.72,America/St_Kitts
537,Saint Lucia,Castries,14.0,-61.0,America/St_Lucia
538,Saint Vincent and the Grenadines,Kingstown,13.13,-61.22,America/St_Vincent
539,Samoa,Apia,-13.83,-171.73,Pacific/Apia
540,San Marino,San Marino,43.93,12.45,Europe/Rome
541,Belgium,'S-Gravenwezel,51.27,4.55,Europe/Brussels
542,Saudi Arabia,Riyadh,24.64,46.77,Asia/Riyadh
543,Senegal,Dakar,14.67,-17.44,Africa/Dakar
544,Serbia,Belgrade,44.8,20.47,Europe/Belgrade
545,Seychelles Islands,Victoria,-4.62,55.45,Indian/Mahe
546,Sierra Leone,Freetown,8.49,-13.23,Africa/Freetown
547,Singapore,Singapore,1.29,103.86,Asia/Singapore
548,Slovakia,Bratislava,48.15,17.12,Europe/Bratislava
549,Slovenia,Ljubljana,46.06,14.51,Europe/Ljubljana
550,Solomon Islands,Honiara,-9.43,159.95,Pacific/Guadalcanal
551,Somalia,Mogadishu,2.07,45.37,Africa/Mogadishu
552,South Africa,Pretoria,-25.75,28.19,Africa/Johannesburg
553,South Korea,Seoul,37.57,127.0,Asia/Seoul
554,Sudan,Juba,12.15,24.45,Africa/Khartoum
555,Spain,Madrid,40.4,-3.68,Europe/Madrid
556,Sri Lanka,Colombo,6.93,79.85,Asia/Colombo
557,Sudan,Khartoum,15.59,32.53,Africa/Khartoum
558,Suriname,Paramaribo,5.83,-55.17,America/Paramaribo
559,Sweden,Stockholm,59.33,18.05,Europe/Stockholm
560,Switzerland,Bern,46.92,7.47,Europe/Zurich
561,Syria,Damascus,33.5,36.3,Asia/Damascus
562,Tajikistan,Dushanbe,38.56,68.77,Asia/Dushanbe
563,Tanzania,Dodoma,-6.18,35.75,Africa/Dar_es_Salaam
564,Thailand,Bangkok,13.75,100.52,Asia/Bangkok
565,Indonesia,Murong Timor,-7.56,112.27,Asia/Jakarta
566,Bulgaria,Lom,43.81,23.24,Europe/Bucharest
567,Tonga,Nuku`Aloia,-21.13,-175.2,Pacific/Tongatapu
568,Trinidad and Tobago,Port Of Spain,10.65,-61.52,America/Port_of_Spain
569,Tunisia,Tunis,36.8,10.18,Africa/Tunis
570,Turkey,Ankara,39.93,32.86,Europe/Istanbul
571,Turkmenistan,Ashgabat,37.95,58.38,Asia/Ashgabat
572,Tuvalu,Funafuti,-8.52,179.22,Pacific/Funafuti
573,Uganda,Kampala,0.32,32.57,Africa/Kampala
574,Ukraine,Lviv,49.83,24.0,Europe/Kiev
575,United Arab Emirates,Abu Dhabi,24.47,54.37,Asia/Dubai
576,United Kingdom,London,51.52,-0.11,Europe/London
577,United States of America,Washington Park,46.6,-120.49,America/Los_Angeles
578,Uruguay,Montevideo,-34.86,-56.17,America/Montevideo
579,Uzbekistan,Tashkent,41.32,69.25,Asia/Tashkent
580,Vanuatu,Port Vila,-17.73,168.32,Pacific/Efate
581,Venezuela,Caracas,10.5,-66.92,America/Caracas
582,Vietnam,Hanoi,21.03,105.85,Asia/Bangkok
583,Yemen,Sanaa,15.35,44.21,Asia/Aden
584,Zambia,Lusaka,-15.42,28.28,Africa/Lusaka
585,Zimbabwe,Harare,-17.82,31.04,Africa/Harare
586,Afghanistan,Kabul,34.52,69.18,Asia/Kabul
587,Albania,Tirana,41.33,19.82,Europe/Tirane
588,Algeria,Algiers,36.76,3.05,Africa/Algiers
589,Andorra,Andorra La Vella,42.5,1.52,Europe/Andorra
590,Angola,Luanda,-8.84,13.23,Africa/Luanda
591,Antigua and Barbuda,Saint John's,17.12,-61.85,America/Antigua
592,Argentina,Buenos Aires,-34.59,-58.67,America/Argentina/Buenos_Aires
593,Armenia,Yerevan,40.18,44.51,Asia/Yerevan
594,Australia,Canberra,-35.28,149.22,Australia/Sydney
595,Austria,Vienna,48.2,16.37,Europe/Vienna
596,Azerbaijan,Baku,40.4,49.88,Asia/Baku
597,Bahamas,Nassau,25.08,-77.35,America/Nassau
598,Bahrain,Manama,26.24,50.58,Asia/Bahrain
599,Bangladesh,Dhaka,23.72,90.41,Asia/Dhaka
600,Barbados,Bridgetown,13.1,-59.62,America/Barbados
601,Belarus,Minsk,53.9,27.57,Europe/Minsk
602,Belgium,Brussels,50.83,4.33,Europe/Brussels
603,Belize,Belmopan,17.25,-88.77,America/Belize
604,Benin,Porto-Novo,6.48,2.62,Africa/Porto-Novo
605,Bhutan,Thimphu,27.48,89.6,Asia/Thimphu
606,Bolivia,Sucre,-19.04,-65.26,America/La_Paz
607,Bosnia and Herzegovina,Sarajevo,43.85,18.38,Europe/Sarajevo
608,Botswana,Gaborone,-24.65,25.91,Africa/Gaborone
609,Brazil,Bras,-2.08,-58.17,America/Manaus
610,Brunei Darussalam,Bandar Seri Begawan,4.88,114.93,Asia/Brunei
611,Bulgaria,Sofia,42.68,23.32,Europe/Sofia
612,Burkina Faso,Ouagadougou,12.37,-1.52,Africa/Ouagadougou
613,Burundi,Bujumbura,-3.38,29.36,Africa/Bujumbura
614,Madagascar,Ivory,-24.37,46.45,Indian/Antananarivo
615,Cape Verde,Praia,14.93,-23.51,Atlantic/Cape_Verde
616,Cambodia,Phnom Penh,11.55,104.92,Asia/Phnom_Penh
617,Cameroon,Bafoussam,5.47,10.42,Africa/Douala
618,Canada,Ottawa,45.42,-75.7,America/Toronto
619,Central African Republic,Bangui,4.37,18.58,Africa/Bangui
620,Chad,N'djamena,12.11,15.05,Africa/Douala
621,Chile,Santiago,-33.45,-70.67,America/Santiago
622,China,Beijing,39.93,116.39,Asia/Shanghai
623,Bulgaria,Bogot,43.32,24.7,Europe/Sofia
624,Comoros,Moroni,-11.7,43.24,Indian/Comoro
625,Congo,Brazzaville,-4.26,15.28,Africa/Brazzaville
626,Costa Rica,San Juan,9.97,-84.08,America/Costa_Rica
627,Croatia,Zagreb,45.8,16.0,Europe/Zagreb
628,Cuba,Havana,23.13,-82.36,America/Havana
629,Cyprus,Nicosia,35.17,33.37,Asia/Famagusta
630,Czech Republic,Prague,50.08,14.47,Europe/Prague
631,Democratic Republic of Congo,Kinshasa,-4.3,15.3,Africa/Brazzaville
632,Denmark,Copenhagen,55.67,12.58,Europe/Copenhagen
633,Djibouti,Djibouti,11.6,43.15,Africa/Djibouti
634,Dominica,Roseau,15.3,-61.4,America/Dominica
635,Dominican Republic,Santo Domingo,18.47,-69.9,America/Santo_Domingo
636,Ecuador,Quito,-0.22,-78.5,America/Guayaquil
637,Egypt,Cairo,30.05,31.25,Africa/Cairo
638,El Salvador,San Salvador,13.71,-89.2,America/El_Salvador
639,Equatorial Guinea,Malabo,3.75,8.78,Africa/Malabo
640,Eritrea,Asmara,15.33,38.93,Africa/Asmara
641,Estonia,Tallinn,59.43,24.73,Europe/Tallinn
642,Swaziland,Mbabane,-26.32,31.13,Africa/Mbabane
643,Ethiopia,Addis Ababa,9.03,38.7,Africa/Addis_Ababa
644,Fiji Islands,Suva,-18.13,178.42,Pacific/Fiji
645,Finland,Helsinki,60.18,24.93,Europe/Helsinki
646,France,Paris,48.87,2.33,Europe/Paris
647,Gabon,Libreville,0.38,9.45,Africa/Libreville
648,Gambia,Banjul,13.45,-16.58,Africa/Banjul
649,Georgia,Tbilisi,41.73,44.79,Asia/Tbilisi
650,Germany,Berlin,52.52,13.4,Europe/Berlin
651,Ghana,Accra,5.55,-0.22,Africa/Accra
652,Greece,Athens,37.98,23.72,Europe/Athens
653,Grenada,Saint George's,12.05,-61.75,America/Grenada
654,Guatemala,Guatemala City,14.62,-90.53,America/Guatemala
655,Guinea,Conakry,9.51,-13.71,Africa/Conakry
656,Guinea-Bissau,Bissau,11.85,-15.58,Africa/Bissau
657,Guyana,Georgetown,6.8,-58.17,America/Guyana
658,Haiti,Port-Au-Prince,18.54,-72.34,America/Port-au-Prince
659,Vatican City,Vatican City,41.9,12.45,Europe/Rome
660,Honduras,Tegucigalpa,14.1,-87.22,America/Tegucigalpa
661,Hungary,Budapest,47.5,19.08,Europe/Budapest
662,Iceland,Hella,63.83,-20.4,Atlantic/Reykjavik
663,India,New Delhi,28.6,77.2,Asia/Kolkata
664,Indonesia,Jakarta,-6.21,106.85,Asia/Jakarta
665,Iran,Tehran,35.73,51.33,Asia/Tehran
666,Iraq,Baghdad,33.34,44.39,Asia/Baghdad
667,Ireland,Dublin,53.33,-6.25,Europe/Dublin
668,Israel,Jerusalem,31.78,35.23,Asia/Hebron
669,Italy,Rome,41.9,12.48,Europe/Rome
670,Jamaica,Norman Gardens,17.97,-76.75,America/Jamaica
671,Japan,Tokyo,35.69,139.69,Asia/Tokyo
672,Jordan,Amman,31.95,35.93,Asia/Amman
673,Kazakhstan,Astana,51.18,71.43,Asia/Almaty
674,Kenya,Nairobi,-1.28,36.82,Africa/Nairobi
675,Kiribati,Tarawa,-0.88,169.53,Pacific/Tarawa
676,Kuwait,Kuwait City,29.37,47.96,Asia/Kuwait
677,Kyrghyzstan,Bishkek,42.87,74.6,Asia/Bishkek
678,Indonesia,Laos,-8.18,114.32,Asia/Jakarta
679,Latvia,Riga,56.95,24.1,Europe/Riga
680,Lebanon,Beirut,33.87,35.51,Asia/Beirut
681,Lesotho,Maseru,-29.32,27.48,Africa/Johannesburg
682,Liberia,Monrovia,6.31,-10.8,Africa/Monrovia
683,Thailand,Nan,18.78,100.78,Asia/Bangkok
684,Liechtenstein,Vaduz,47.13,9.52,Europe/Vaduz
685,Lithuania,Vilnius,54.68,25.32,Europe/Vilnius
686,Luxembourg,Luxembourg,49.61,6.13,Europe/Luxembourg
687,Madagascar,Antananarivo,-18.92,47.52,Indian/Antananarivo
688,Malawi,Lilongwe,-13.98,33.78,Africa/Blantyre
689,Malaysia,Kuala Lumpur,3.17,101.7,Asia/Kuala_Lumpur
690,Maldives,Farukolhufunadhoo,6.15,73.27,Indian/Maldives
691,Mali,Bamako,12.65,-8.0,Africa/Bamako
692,Malta,Valletta,35.9,14.51,Europe/Malta
693,Marshall Islands,Majuro,7.1,171.38,Pacific/Majuro
694,Mauritania,Nouakchott,18.09,-15.98,Africa/Nouakchott
695,Mauritius,Port Louis,-20.16,57.5,Indian/Mauritius
696,Mexico,Mexico City,19.43,-99.13,America/Mexico_City
697,Micronesia,Palikir,6.92,158.15,Pacific/Pohnpei
698,Russia,Chi-Chi-Erh,51.7,94.45,Asia/Krasnoyarsk
699,Monaco,Monaco,43.73,7.42,Europe/Monaco
700,Mongolia,Ulaanbaatar,47.92,106.92,Asia/Ulaanbaatar
701,Montenegro,Podgorica,42.44,19.26,Europe/Podgorica
702,Morocco,Rabat,34.03,-6.84,Africa/Casablanca
703,Mozambique,Maputo,-25.97,32.59,Africa/Maputo
704,Myanmar,Pathein,16.78,94.73,Asia/Yangon
705,Namibia,Windhoek,-22.57,17.08,Africa/Windhoek
706,Turkey,Yaren,39.55,27.62,Europe/Istanbul
707,Nepal,Kathmandu,27.72,85.32,Asia/Kathmandu
708,Netherlands,Amsterdam,52.37,4.89,Europe/Amsterdam
709,New Zealand,Wellington,-41.3,174.78,Pacific/Auckland
710,Nicaragua,Managua,12.15,-86.27,America/Managua
711,Niger,Niamey,13.52,2.12,Africa/Niamey
712,Nigeria,Abuja,9.18,7.18,Africa/Lagos
713,North Korea,Pyongyang,39.02,125.75,Asia/Pyongyang
714,Macedonia,Skopje,42.0,21.43,Europe/Skopje
715,Norway,Oslo,59.92,10.75,Europe/Oslo
716,Oman,Muscat,23.61,58.59,Asia/Muscat
717,Pakistan,Islamabad,33.7,73.17,Asia/Karachi
718,Palau,Adkip,7.36,134.51,Pacific/Palau
719,Bolivia,National,-11.18,-67.08,America/La_Paz
720,Panama,Panama City,8.97,-79.53,America/Panama
721,Papua New Guinea,Port Moresby,-9.46,147.19,Pacific/Port_Moresby
722,Paraguay,Carreria,-21.55,-58.12,America/Asuncion
723,Peru,Lima,-12.05,-77.05,America/Lima
724,Philippines,Manila,14.6,120.98,Asia/Manila
725,Poland,Warsaw,52.25,21.0,Europe/Warsaw
726,Portugal,Lisbon,38.72,-9.13,Europe/Lisbon
727,Qatar,Doha,25.29,51.53,Asia/Qatar
728,Romania,Bucharest,44.43,26.1,Europe/Bucharest
729,Russia,Moscow,55.75,37.62,Europe/Moscow
730,Rwanda,Kigali,-1.95,30.06,Africa/Kigali
731,Saint Kitts and Nevis,Basseterre,17.3,-62.72,America/St_Kitts
732,Saint Lucia,Castries,14.0,-61.0,America/St_Lucia
733,Saint Vincent and the Grenadines,Kingstown,13.13,-61.22,America/St_Vincent
734,Samoa,Apia,-13.83,-171.73,Pacific/Apia
735,San Marino,San Marino,43.93,12.45,Europe/Rome
736,Belgium,'S-Gravenwezel,51.27,4.55,Europe/Brussels
737,Saudi Arabia,Riyadh,24.64,46.77,Asia/Riyadh
738,Senegal,Dakar,14.67,-17.44,Africa/Dakar
739,Serbia,Belgrade,44.8,20.47,Europe/Belgrade
740,Seychelles Islands,Victoria,-4.62,55.45,Indian/Mahe
741,Sierra Leone,Freetown,8.49,-13.23,Africa/Freetown
742,Singapore,Singapore,1.29,103.86,Asia/Singapore
743,Slovakia,Bratislava,48.15,17.12,Europe/Bratislava
744,Slovenia,Ljubljana,46.06,14.51,Europe/Ljubljana
745,Solomon Islands,Honiara,-9.43,159.95,Pacific/Guadalcanal
746,Somalia,Mogadishu,2.07,45.37,Africa/Mogadishu
747,South Africa,Pretoria,-25.75,28.19,Africa/Johannesburg
748,South Korea,Seoul,37.57,127.0,Asia/Seoul
749,Sudan,Juba,12.15,24.45,Africa/Khartoum
750,Spain,Madrid,40.4,-3.68,Europe/Madrid
751,Sri Lanka,Colombo,6.93,79.85,Asia/Colombo
752,Sudan,Khartoum,15.59,32.53,Africa/Khartoum
753,Suriname,Paramaribo,5.83,-55.17,America/Paramaribo
754,Sweden,Stockholm,59.33,18.05,Europe/Stockholm
755,Switzerland,Bern,46.92,7.47,Europe/Zurich
756,Syria,Damascus,33.5,36.3,Asia/Damascus
757,Tajikistan,Dushanbe,38.56,68.77,Asia/Dushanbe
758,Tanzania,Dodoma,-6.18,35.75,Africa/Dar_es_Salaam
759,Thailand,Bangkok,13.75,100.52,Asia/Bangkok
760,Indonesia,Murong Timor,-7.56,112.27,Asia/Jakarta
761,Bulgaria,Lom,43.81,23.24,Europe/Bucharest
762,Tonga,Nuku`Aloia,-21.13,-175.2,Pacific/Tongatapu
763,Trinidad and Tobago,Port Of Spain,10.65,-61.52,America/Port_of_Spain
764,Tunisia,Tunis,36.8,10.18,Africa/Tunis
765,Turkey,Ankara,39.93,32.86,Europe/Istanbul
766,Turkmenistan,Ashgabat,37.95,58.38,Asia/Ashgabat
767,Tuvalu,Funafuti,-8.52,179.22,Pacific/Funafuti
768,Uganda,Kampala,0.32,32.57,Africa/Kampala
769,Ukraine,Lviv,49.83,24.0,Europe/Kiev
770,United Arab Emirates,Abu Dhabi,24.47,54.37,Asia/Dubai
771,United Kingdom,London,51.52,-0.11,Europe/London
772,United States of America,Washington Park,46.6,-120.49,America/Los_Angeles
773,Uruguay,Montevideo,-34.86,-56.17,America/Montevideo
774,Uzbekistan,Tashkent,41.32,69.25,Asia/Tashkent
775,Vanuatu,Port Vila,-17.73,168.32,Pacific/Efate
776,Venezuela,Caracas,10.5,-66.92,America/Caracas
777,Vietnam,Hanoi,21.03,105.85,Asia/Bangkok
778,Yemen,Sanaa,15.35,44.21,Asia/Aden
779,Zambia,Lusaka,-15.42,28.28,Africa/Lusaka
780,Zimbabwe,Harare,-17.82,31.04,Africa/Harare
781,Afghanistan,Kabul,34.52,69.18,Asia/Kabul
782,Albania,Tirana,41.33,19.82,Europe/Tirane
783,Algeria,Algiers,36.76,3.05,Africa/Algiers
784,Andorra,Andorra La Vella,42.5,1.52,Europe/Andorra
785,Angola,Luanda,-8.84,13.23,Africa/Luanda
786,Antigua and Barbuda,Saint John's,17.12,-61.85,America/Antigua
787,Argentina,Buenos Aires,-34.59,-58.67,America/Argentina/Buenos_Aires
788,Armenia,Yerevan,40.18,44.51,Asia/Yerevan
789,Australia,Canberra,-35.28,149.22,Australia/Sydney
790,Austria,Vienna,48.2,16.37,Europe/Vienna
791,Azerbaijan,Baku,40.4,49.88,Asia/Baku
792,Bahamas,Nassau,25.08,-77.35,America/Nassau
793,Bahrain,Manama,26.24,50.58,Asia/Bahrain
794,Bangladesh,Dhaka,23.72,90.41,Asia/Dhaka
795,Barbados,Bridgetown,13.1,-59.62,America/Barbados
796,Belarus,Minsk,53.9,27.57,Europe/Minsk
797,Belgium,Brussels,50.83,4.33,Europe/Brussels
798,Belize,Belmopan,17.25,-88.77,America/Belize
799,Benin,Porto-Novo,6.48,2.62,Africa/Porto-Novo
800,Bhutan,Thimphu,27.48,89.6,Asia/Thimphu
801,Bolivia,Sucre,-19.04,-65.26,America/La_Paz
802,Bosnia and Herzegovina,Sarajevo,43.85,18.38,Europe/Sarajevo
803,Botswana,Gaborone,-24.65,25.91,Africa/Gaborone
804,Brazil,Bras,-2.08,-58.17,America/Manaus
805,Brunei Darussalam,Bandar Seri Begawan,4.88,114.93,Asia/Brunei
806,Bulgaria,Sofia,42.68,23.32,Europe/Sofia
807,Burkina Faso,Ouagadougou,12.37,-1.52,Africa/Ouagadougou
808,Burundi,Bujumbura,-3.38,29.36,Africa/Bujumbura
809,Madagascar,Ivory,-24.37,46.45,Indian/Antananarivo
810,Cape Verde,Praia,14.93,-23.51,Atlantic/Cape_Verde
811,Cambodia,Phnom Penh,11.55,104.92,Asia/Phnom_Penh
812,Cameroon,Bafoussam,5.47,10.42,Africa/Douala
813,Canada,Ottawa,45.42,-75.7,America/Toronto
814,Central African Republic,Bangui,4.37,18.58,Africa/Bangui
815,Chad,N'djamena,12.11,15.05,Africa/Douala
816,Chile,Santiago,-33.45,-70.67,America/Santiago
817,China,Beijing,39.93,116.39,Asia/Shanghai
818,Bulgaria,Bogot,43.32,24.7,Europe/Sofia
819,Comoros,Moroni,-11.7,43.24,Indian/Comoro
820,Congo,Brazzaville,-4.26,15.28,Africa/Brazzaville
821,Costa Rica,San Juan,9.97,-84.08,America/Costa_Rica
822,Croatia,Zagreb,45.8,16.0,Europe/Zagreb
823,Cuba,Havana,23.13,-82.36,America/Havana
824,Cyprus,Nicosia,35.17,33.37,Asia/Famagusta
825,Czech Republic,Prague,50.08,14.47,Europe/Prague
826,Democratic Republic of Congo,Kinshasa,-4.3,15.3,Africa/Brazzaville
827,Denmark,Copenhagen,55.67,12.58,Europe/Copenhagen
828,Djibouti,Djibouti,11.6,43.15,Africa/Djibouti
829,Dominica,Roseau,15.3,-61.4,America/Dominica
830,Dominican Republic,Santo Domingo,18.47,-69.9,America/Santo_Domingo
831,Ecuador,Quito,-0.22,-78.5,America/Guayaquil
832,Egypt,Cairo,30.05,31.25,Africa/Cairo
833,El Salvador,San Salvador,13.71,-89.2,America/El_Salvador
834,Equatorial Guinea,Malabo,3.75,8.78,Africa/Malabo
835,Eritrea,Asmara,15.33,38.93,Africa/Asmara
836,Estonia,Tallinn,59.43,24.73,Europe/Tallinn
837,Swaziland,Mbabane,-26.32,31.13,Africa/Mbabane
838,Ethiopia,Addis Ababa,9.03,38.7,Africa/Addis_Ababa
839,Fiji Islands,Suva,-18.13,178.42,Pacific/Fiji
840,Finland,Helsinki,60.18,24.93,Europe/Helsinki
841,France,Paris,48.87,2.33,Europe/Paris
842,Gabon,Libreville,0.38,9.45,Africa/Libreville
843,Gambia,Banjul,13.45,-16.58,Africa/Banjul
844,Georgia,Tbilisi,41.73,44.79,Asia/Tbilisi
845,Germany,Berlin,52.52,13.4,Europe/Berlin
846,Ghana,Accra,5.55,-0.22,Africa/Accra
847,Greece,Athens,37.98,23.72,Europe/Athens
848,Grenada,Saint George's,12.05,-61.75,America/Grenada
849,Guatemala,Guatemala City,14.62,-90.53,America/Guatemala
850,Guinea,Conakry,9.51,-13.71,Africa/Conakry
851,Guinea-Bissau,Bissau,11.85,-15.58,Africa/Bissau
852,Guyana,Georgetown,6.8,-58.17,America/Guyana
853,Haiti,Port-Au-Prince,18.54,-72.34,America/Port-au-Prince
854,Vatican City,Vatican City,41.9,12.45,Europe/Rome
855,Honduras,Tegucigalpa,14.1,-87.22,America/Tegucigalpa
856,Hungary,Budapest,47.5,19.08,Europe/Budapest
857,Iceland,Hella,63.83,-20.4,Atlantic/Reykjavik
858,India,New Delhi,28.6,77.2,Asia/Kolkata
859,Indonesia,Jakarta,-6.21,106.85,Asia/Jakarta
860,Iran,Tehran,35.73,51.33,Asia/Tehran
861,Iraq,Baghdad,33.34,44.39,Asia/Baghdad
862,Ireland,Dublin,53.33,-6.25,Europe/Dublin
863,Israel,Jerusalem,31.78,35.23,Asia/Jerusalem
864,Italy,Rome,41.9,12.48,Europe/Rome
865,Jamaica,Norman Gardens,17.97,-76.75,America/Jamaica
866,Japan,Tokyo,35.69,139.69,Asia/Tokyo
867,Jordan,Amman,31.95,35.93,Asia/Amman
868,Kazakhstan,Astana,51.18,71.43,Asia/Almaty
869,Kenya,Nairobi,-1.28,36.82,Africa/Nairobi
870,Kiribati,Tarawa,-0.88,169.53,Pacific/Tarawa
871,Kuwait,Kuwait City,29.37,47.96,Asia/Kuwait
872,Kyrghyzstan,Bishkek,42.87,74.6,Asia/Bishkek
873,Indonesia,Laos,-8.18,114.32,Asia/Jakarta
874,Latvia,Riga,56.95,24.1,Europe/Riga
875,Lebanon,Beirut,33.87,35.51,Asia/Beirut
876,Lesotho,Maseru,-29.32,27.48,Africa/Johannesburg
877,Liberia,Monrovia,6.31,-10.8,Africa/Monrovia
878,Thailand,Nan,18.78,100.78,Asia/Bangkok
879,Liechtenstein,Vaduz,47.13,9.52,Europe/Vaduz
880,Lithuania,Vilnius,54.68,25.32,Europe/Vilnius
881,Luxembourg,Luxembourg,49.61,6.13,Europe/Luxembourg
882,Madagascar,Antananarivo,-18.92,47.52,Indian/Antananarivo
883,Malawi,Lilongwe,-13.98,33.78,Africa/Blantyre
884,Malaysia,Kuala Lumpur,3.17,101.7,Asia/Kuala_Lumpur
885,Maldives,Farukolhufunadhoo,6.15,73.27,Indian/Maldives
886,Mali,Bamako,12.65,-8.0,Africa/Bamako
887,Malta,Valletta,35.9,14.51,Europe/Malta
888,Marshall Islands,Majuro,7.1,171.38,Pacific/Majuro
889,Mauritania,Nouakchott,18.09,-15.98,Africa/Nouakchott
890,Mauritius,Port Louis,-20.16,57.5,Indian/Mauritius
891,Mexico,Mexico City,19.43,-99.13,America/Mexico_City
892,Micronesia,Palikir,6.92,158.15,Pacific/Pohnpei
893,Russia,Chi-Chi-Erh,51.7,94.45,Asia/Krasnoyarsk
894,Monaco,Monaco,43.73,7.42,Europe/Monaco
895,Mongolia,Ulaanbaatar,47.92,106.92,Asia/Ulaanbaatar
896,Montenegro,Podgorica,42.44,19.26,Europe/Podgorica
897,Morocco,Rabat,34.03,-6.84,Africa/Casablanca
898,Mozambique,Maputo,-25.97,32.59,Africa/Maputo
899,Myanmar,Pathein,16.78,94.73,Asia/Yangon
900,Namibia,Windhoek,-22.57,17.08,Africa/Windhoek
901,Turkey,Yaren,39.55,27.62,Europe/Istanbul
902,Nepal,Kathmandu,27.72,85.32,Asia/Kathmandu
903,Netherlands,Amsterdam,52.37,4.89,Europe/Amsterdam
904,New Zealand,Wellington,-41.3,174.78,Pacific/Auckland
905,Nicaragua,Managua,12.15,-86.27,America/Managua
906,Niger,Niamey,13.52,2.12,Africa/Niamey
907,Nigeria,Abuja,9.18,7.18,Africa/Lagos
908,North Korea,Pyongyang,39.02,125.75,Asia/Pyongyang
909,Macedonia,Skopje,42.0,21.43,Europe/Skopje
910,Norway,Oslo,59.92,10.75,Europe/Oslo
911,Oman,Muscat,23.61,58.59,Asia/Muscat
912,Pakistan,Islamabad,33.7,73.17,Asia/Karachi
913,Palau,Adkip,7.36,134.51,Pacific/Palau
914,Bolivia,National,-11.18,-67.08,America/La_Paz
915,Panama,Panama City,8.97,-79.53,America/Panama
916,Papua New Guinea,Port Moresby,-9.46,147.19,Pacific/Port_Moresby
917,Paraguay,Carreria,-21.55,-58.12,America/Asuncion
918,Peru,Lima,-12.05,-77.05,America/Lima
919,Philippines,Manila,14.6,120.98,Asia/Manila
920,Poland,Warsaw,52.25,21.0,Europe/Warsaw
921,Portugal,Lisbon,38.72,-9.13,Europe/Lisbon
922,Qatar,Doha,25.29,51.53,Asia/Qatar
923,Romania,Bucharest,44.43,26.1,Europe/Bucharest
924,Russia,Moscow,55.75,37.62,Europe/Moscow
925,Rwanda,Kigali,-1.95,30.06,Africa/Kigali
926,Saint Kitts and Nevis,Basseterre,17.3,-62.72,America/St_Kitts
927,Saint Lucia,Castries,14.0,-61.0,America/St_Lucia
928,Saint Vincent and the Grenadines,Kingstown,13.13,-61.22,America/St_Vincent
929,Samoa,Apia,-13.83,-171.73,Pacific/Apia
930,San Marino,San Marino,43.93,12.45,Europe/Rome
931,Belgium,'S-Gravenwezel,51.27,4.55,Europe/Brussels
932,Saudi Arabia,Riyadh,24.64,46.77,Asia/Riyadh
933,Senegal,Dakar,14.67,-17.44,Africa/Dakar
934,Serbia,Belgrade,44.8,20.47,Europe/Belgrade
935,Seychelles Islands,Victoria,-4.62,55.45,Indian/Mahe
936,Sierra Leone,Freetown,8.49,-13.23,Africa/Freetown
937,Singapore,Singapore,1.29,103.86,Asia/Singapore
938,Slovakia,Bratislava,48.15,17.12,Europe/Bratislava
939,Slovenia,Ljubljana,46.06,14.51,Europe/Ljubljana
940,Solomon Islands,Honiara,-9.43,159.95,Pacific/Guadalcanal
941,Somalia,Mogadishu,2.07,45.37,Africa/Mogadishu
942,South Africa,Pretoria,-25.75,28.19,Africa/Johannesburg
943,South Korea,Seoul,37.57,127.0,Asia/Seoul
944,Sudan,Juba,12.15,24.45,Africa/Khartoum
945,Spain,Madrid,40.4,-3.68,Europe/Madrid
946,Sri Lanka,Colombo,6.93,79.85,Asia/Colombo
947,Sudan,Khartoum,15.59,32.53,Africa/Khartoum
948,Suriname,Paramaribo,5.83,-55.17,America/Paramaribo
949,Sweden,Stockholm,59.33,18.05,Europe/Stockholm
950,Switzerland,Bern,46.92,7.47,Europe/Zurich
951,Syria,Damascus,33.5,36.3,Asia/Damascus
952,Tajikistan,Dushanbe,38.56,68.77,Asia/Dushanbe
953,Tanzania,Dodoma,-6.18,35.75,Africa/Dar_es_Salaam
954,Thailand,Bangkok,13.75,100.52,Asia/Bangkok
955,Indonesia,Murong Timor,-7.56,112.27,Asia/Jakarta
956,Bulgaria,Lom,43.81,23.24,Europe/Bucharest
957,Tonga,Nuku`Aloia,-21.13,-175.2,Pacific/Tongatapu
958,Trinidad and Tobago,Port Of Spain,10.65,-61.52,America/Port_of_Spain
959,Tunisia,Tunis,36.8,10.18,Africa/Tunis
960,Turkey,Ankara,39.93,32.86,Europe/Istanbul
961,Turkmenistan,Ashgabat,37.95,58.38,Asia/Ashgabat
962,Uganda,Kampala,0.32,32.57,Africa/Kampala
963,Ukraine,Lviv,49.83,24.0,Europe/Kiev
964,United Arab Emirates,Abu Dhabi,24.47,54.37,Asia/Dubai
965,United Kingdom,London,51.52,-0.11,Europe/London
966,United States of America,Washington Park,46.6,-120.49,America/Los_Angeles
967,Uruguay,Montevideo,-34.86,-56.17,America/Montevideo
968,Uzbekistan,Tashkent,41.32,69.25,Asia/Tashkent
969,Vanuatu,Port Vila,-17.73,168.32,Pacific/Efate
970,Venezuela,Caracas,10.5,-66.92,America/Caracas
971,Vietnam,Hanoi,21.03,105.85,Asia/Bangkok
972,Yemen,Sanaa,15.35,44.21,Asia/Aden
973,Zambia,Lusaka,-15.42,28.28,Africa/Lusaka
974,Zimbabwe,Harare,-17.82,31.04,Africa/Harare
975,Afghanistan,Kabul,34.52,69.18,Asia/Kabul
976,Albania,Tirana,41.33,19.82,Europe/Tirane
977,Algeria,Algiers,36.76,3.05,Africa/Algiers
978,Andorra,Andorra La Vella,42.5,1.52,Europe/Andorra
979,Angola,Luanda,-8.84,13.23,Africa/Luanda
980,Antigua and Barbuda,Saint John's,17.12,-61.85,America/Antigua
981,Argentina,Buenos Aires,-34.59,-58.67,America/Argentina/Buenos_Aires
982,Armenia,Yerevan,40.18,44.51,Asia/Yerevan
983,Australia,Canberra,-35.28,149.22,Australia/Sydney
984,Austria,Vienna,48.2,16.37,Europe/Vienna
985,Azerbaijan,Baku,40.4,49.88,Asia/Baku
986,Bahamas,Nassau,25.08,-77.35,America/Nassau
987,Bahrain,Manama,26.24,50.58,Asia/Bahrain
988,Bangladesh,Dhaka,23.72,90.41,Asia/Dhaka
989,Barbados,Bridgetown,13.1,-59.62,America/Barbados
990,Belarus,Minsk,53.9,27.57,Europe/Minsk
991,Belgium,Brussels,50.83,4.33,Europe/Brussels
992,Belize,Belmopan,17.25,-88.77,America/Belize
993,Benin,Porto-Novo,6.48,2.62,Africa/Porto-Novo
994,Bhutan,Thimphu,27.48,89.6,Asia/Thimphu
995,Bolivia,Sucre,-19.04,-65.26,America/La_Paz
996,Bosnia and Herzegovina,Sarajevo,43.85,18.38,Europe/Sarajevo
997,Botswana,Gaborone,-24.65,25.91,Africa/Gaborone
998,Brazil,Bras,-2.08,-58.17,America/Manaus
999,Brunei Darussalam,Bandar Seri Begawan,4.88,114.93,Asia/Brunei
1000,Bulgaria,Sofia,42.68,23.32,Europe/Sofia
1001,Burkina Faso,Ouagadougou,12.37,-1.52,Africa/Ouagadougou
1002,Burundi,Bujumbura,-3.38,29.36,Africa/Bujumbura
1003,Madagascar,Ivory,-24.37,46.45,Indian/Antananarivo
1004,Cape Verde,Praia,14.93,-23.51,Atlantic/Cape_Verde
1005,Cambodia,Phnom Penh,11.55,104.92,Asia/Phnom_Penh
1006,Cameroon,Bafoussam,5.47,10.42,Africa/Douala
1007,Canada,Ottawa,45.42,-75.7,America/Toronto
1008,Central African Republic,Bangui,4.37,18.58,Africa/Bangui
1009,Chad,N'djamena,12.11,15.05,Africa/Douala
1010,Chile,Santiago,-33.45,-70.67,America/Santiago
1011,China,Beijing,39.93,116.39,Asia/Shanghai
1012,Bulgaria,Bogot,43.32,24.7,Europe/Sofia
1013,Comoros,Moroni,-11.7,43.24,Indian/Comoro
1014,Congo,Brazzaville,-4.26,15.28,Africa/Brazzaville
1015,Costa Rica,San Juan,9.97,-84.08,America/Costa_Rica
1016,Croatia,Zagreb,45.8,16.0,Europe/Zagreb
1017,Cuba,Havana,23.13,-82.36,America/Havana
1018,Cyprus,Nicosia,35.17,33.37,Asia/Famagusta
1019,Czech Republic,Prague,50.08,14.47,Europe/Prague
1020,Democratic Republic of Congo,Kinshasa,-4.3,15.3,Africa/Kinshasa
1021,Denmark,Copenhagen,55.67,12.58,Europe/Copenhagen
1022,Djibouti,Djibouti,11.6,43.15,Africa/Djibouti
1023,Dominica,Roseau,15.3,-61.4,America/Dominica
1024,Dominican Republic,Santo Domingo,18.47,-69.9,America/Santo_Domingo
1025,Ecuador,Quito,-0.22,-78.5,America/Guayaquil
1026,Egypt,Cairo,30.05,31.25,Africa/Cairo
1027,El Salvador,San Salvador,13.71,-89.2,America/El_Salvador
1028,Equatorial Guinea,Malabo,3.75,8.78,Africa/Malabo
1029,Eritrea,Asmara,15.33,38.93,Africa/Asmara
1030,Estonia,Tallinn,59.43,24.73,Europe/Tallinn
1031,Swaziland,Mbabane,-26.32,31.13,Africa/Mbabane
1032,Ethiopia,Addis Ababa,9.03,38.7,Africa/Addis_Ababa
1033,Fiji Islands,Suva,-18.13,178.42,Pacific/Fiji
1034,Finland,Helsinki,60.18,24.93,Europe/Helsinki
1035,France,Paris,48.87,2.33,Europe/Paris
1036,Gabon,Libreville,0.38,9.45,Africa/Libreville
1037,Gambia,Banjul,13.45,-16.58,Africa/Banjul
1038,Georgia,Tbilisi,41.73,44.79,Asia/Tbilisi
1039,Germany,Berlin,52.52,13.4,Europe/Berlin
1040,Ghana,Accra,5.55,-0.22,Africa/Accra
1041,Greece,Athens,37.98,23.72,Europe/Athens
1042,Grenada,Saint George's,12.05,-61.75,America/Grenada
1043,Guatemala,Guatemala City,14.62,-90.53,America/Guatemala
1044,Guinea,Conakry,9.51,-13.71,Africa/Conakry
1045,Guinea-Bissau,Bissau,11.85,-15.58,Africa/Bissau
1046,Guyana,Georgetown,6.8,-58.17,America/Guyana
1047,Haiti,Port-Au-Prince,18.54,-72.34,America/Port-au-Prince
1048,Vatican City,Vatican City,41.9,12.45,Europe/Rome
1049,Honduras,Tegucigalpa,14.1,-87.22,America/Tegucigalpa
1050,Hungary,Budapest,47.5,19.08,Europe/Budapest
1051,Iceland,Hella,63.83,-20.4,Atlantic/Reykjavik
1052,India,New Delhi,28.6,77.2,Asia/Kolkata
1053,Indonesia,Jakarta,-6.21,106.85,Asia/Jakarta
1054,Iran,Tehran,35.73,51.33,Asia/Tehran
1055,Iraq,Baghdad,33.34,44.39,Asia/Baghdad
1056,Ireland,Dublin,53.33,-6.25,Europe/Dublin
1057,Israel,Jerusalem,31.78,35.23,Asia/Jerusalem
1058,Italy,Rome,41.9,12.48,Europe/Rome
1059,Jamaica,Norman Gardens,17.97,-76.75,America/Jamaica
1060,Japan,Tokyo,35.69,139.69,Asia/Tokyo
1061,Jordan,Amman,31.95,35.93,Asia/Amman
1062,Kazakhstan,Astana,51.18,71.43,Asia/Almaty
1063,Kenya,Nairobi,-1.28,36.82,Africa/Nairobi
1064,Kiribati,Tarawa,-0.88,169.53,Pacific/Tarawa
1065,Kuwait,Kuwait City,29.37,47.96,Asia/Kuwait
1066,Kyrghyzstan,Bishkek,42.87,74.6,Asia/Bishkek
1067,Indonesia,Laos,-8.18,114.32,Asia/Jakarta
1068,Latvia,Riga,56.95,24.1,Europe/Riga
1069,Lebanon,Beirut,33.87,35.51,Asia/Beirut
1070,Lesotho,Maseru,-29.32,27.48,Africa/Johannesburg
1071,Liberia,Monrovia,6.31,-10.8,Africa/Monrovia
1072,Thailand,Nan,18.78,100.78,Asia/Bangkok
1073,Liechtenstein,Vaduz,47.13,9.52,Europe/Vaduz
1074,Lithuania,Vilnius,54.68,25.32,Europe/Vilnius
1075,Luxembourg,Luxembourg,49.61,6.13,Europe/Luxembourg
1076,Madagascar,Antananarivo,-18.92,47.52,Indian/Antananarivo
1077,Malawi,Lilongwe,-13.98,33.78,Africa/Blantyre
1078,Malaysia,Kuala Lumpur,3.17,101.7,Asia/Kuala_Lumpur
1079,Maldives,Farukolhufunadhoo,6.15,73.27,Indian/Maldives
1080,Mali,Bamako,12.65,-8.0,Africa/Bamako
1081,Malta,Valletta,35.9,14.51,Europe/Malta
1082,Marshall Islands,Majuro,7.1,171.38,Pacific/Majuro
1083,Mauritania,Nouakchott,18.09,-15.98,Africa/Nouakchott
1084,Mauritius,Port Louis,-20.16,57.5,Indian/Mauritius
1085,Mexico,Mexico City,19.43,-99.13,America/Mexico_City
1086,Micronesia,Palikir,6.92,158.15,Pacific/Pohnpei
1087,Russia,Chi-Chi-Erh,51.7,94.45,Asia/Krasnoyarsk
1088,Monaco,Monaco,43.73,7.42,Europe/Monaco
1089,Mongolia,Ulaanbaatar,47.92,106.92,Asia/Ulaanbaatar
1090,Montenegro,Podgorica,42.44,19.26,Europe/Podgorica
1091,Morocco,Rabat,34.03,-6.84,Africa/Casablanca
1092,Mozambique,Maputo,-25.97,32.59,Africa/Maputo
1093,Myanmar,Pathein,16.78,94.73,Asia/Yangon
1094,Namibia,Windhoek,-22.57,17.08,Africa/Windhoek
1095,Turkey,Yaren,39.55,27.62,Europe/Istanbul
1096,Nepal,Kathmandu,27.72,85.32,Asia/Kathmandu
1097,Netherlands,Amsterdam,52.37,4.89,Europe/Amsterdam
1098,New Zealand,Wellington,-41.3,174.78,Pacific/Auckland
1099,Nicaragua,Managua,12.15,-86.27,America/Managua
1100,Niger,Niamey,13.52,2.12,Africa/Niamey
1101,Nigeria,Abuja,9.18,7.18,Africa/Lagos
1102,North Korea,Pyongyang,39.02,125.75,Asia/Pyongyang
1103,Macedonia,Skopje,42.0,21.43,Europe/Skopje
1104,Norway,Oslo,59.92,10.75,Europe/Oslo
1105,Oman,Muscat,23.61,58.59,Asia/Muscat
1106,Pakistan,Islamabad,33.7,73.17,Asia/Karachi
1107,Palau,Adkip,7.36,134.51,Pacific/Palau
1108,Bolivia,National,-11.18,-67.08,America/La_Paz
1109,Panama,Panama City,8.97,-79.53,America/Panama
1110,Papua New Guinea,Port Moresby,-9.46,147.19,Pacific/Port_Moresby
1111,Paraguay,Carreria,-21.55,-58.12,America/Asuncion
1112,Peru,Lima,-12.05,-77.05,America/Lima
1113,Philippines,Manila,14.6,120.98,Asia/Manila
1114,Poland,Warsaw,52.25,21.0,Europe/Warsaw
1115,Portugal,Lisbon,38.72,-9.13,Europe/Lisbon
1116,Qatar,Doha,25.29,51.53,Asia/Qatar
1117,Romania,Bucharest,44.43,26.1,Europe/Bucharest
1118,Russia,Moscow,55.75,37.62,Europe/Moscow
1119,Rwanda,Kigali,-1.95,30.06,Africa/Kigali
1120,Saint Kitts and Nevis,Basseterre,17.3,-62.72,America/St_Kitts
1121,Saint Lucia,Castries,14.0,-61.0,America/St_Lucia
1122,Saint Vincent and the Grenadines,Kingstown,13.13,-61.22,America/St_Vincent
1123,Samoa,Apia,-13.83,-171.73,Pacific/Apia
1124,San Marino,San Marino,43.93,12.45,Europe/Rome
1125,Belgium,'S-Gravenwezel,51.27,4.55,Europe/Brussels
1126,Saudi Arabia,Riyadh,24.64,46.77,Asia/Riyadh
1127,Senegal,Dakar,14.67,-17.44,Africa/Dakar
1128,Serbia,Belgrade,44.8,20.47,Europe/Belgrade
1129,Seychelles Islands,Victoria,-4.62,55.45,Indian/Mahe
1130,Sierra Leone,Freetown,8.49,-13.23,Africa/Freetown
1131,Singapore,Singapore,1.29,103.86,Asia/Singapore
1132,Slovakia,Bratislava,48.15,17.12,Europe/Bratislava
1133,Slovenia,Ljubljana,46.06,14.51,Europe/Ljubljana
1134,Solomon Islands,Honiara,-9.43,159.95,Pacific/Guadalcanal
1135,Somalia,Mogadishu,2.07,45.37,Africa/Mogadishu
1136,South Africa,Pretoria,-25.75,28.19,Africa/Johannesburg
1137,South Korea,Seoul,37.57,127.0,Asia/Seoul
1138,Sudan,Juba,12.15,24.45,Africa/Khartoum
1139,Spain,Madrid,40.4,-3.68,Europe/Madrid
1140,Sri Lanka,Colombo,6.93,79.85,Asia/Colombo
1141,Sudan,Khartoum,15.59,32.53,Africa/Khartoum
1142,Suriname,Paramaribo,5.83,-55.17,America/Paramaribo
1143,Sweden,Stockholm,59.33,18.05,Europe/Stockholm
1144,Switzerland,Bern,46.92,7.47,Europe/Zurich
1145,Syria,Damascus,33.5,36.3,Asia/Damascus
1146,Tajikistan,Dushanbe,38.56,68.77,Asia/Dushanbe
1147,Tanzania,Dodoma,-6.18,35.75,Africa/Dar_es_Salaam
1148,Thailand,Bangkok,13.75,100.52,Asia/Bangkok
1149,Indonesia,Murong Timor,-7.56,112.27,Asia/Jakarta
1150,Bulgaria,Lom,43.81,23.24,Europe/Bucharest
1151,Tonga,Nuku`Aloia,-21.13,-175.2,Pacific/Tongatapu
1152,Trinidad and Tobago,Port Of Spain,10.65,-61.52,America/Port_of_Spain
1153,Tunisia,Tunis,36.8,10.18,Africa/Tunis
1154,Turkey,Ankara,39.93,32.86,Europe/Istanbul
1155,Turkmenistan,Ashgabat,37.95,58.38,Asia/Ashgabat
1156,Tuvalu,Funafuti,-8.52,179.22,Pacific/Funafuti
1157,Uganda,Kampala,0.32,32.57,Africa/Kampala
1158,Ukraine,Lviv,49.83,24.0,Europe/Kiev
1159,United Arab Emirates,Abu Dhabi,24.47,54.37,Asia/Dubai
1160,United Kingdom,London,51.52,-0.11,Europe/London
1161,United States of America,Washington Park,46.6,-120.49,America/Los_Angeles
1162,Uruguay,Montevideo,-34.86,-56.17,America/Montevideo
1163,Uzbekistan,Tashkent,41.32,69.25,Asia/Tashkent
1164,Vanuatu,Port Vila,-17.73,168.32,Pacific/Efate
1165,Venezuela,Caracas,10.5,-66.92,America/Caracas
1166,Vietnam,Hanoi,21.03,105.85,Asia/Bangkok
1167,Yemen,Sanaa,15.35,44.21,Asia/Aden
1168,Zambia,Lusaka,-15.42,28.28,Africa/Lusaka
1169,Zimbabwe,Harare,-17.82,31.04,Africa/Harare
1170,Afghanistan,Kabul,34.52,69.18,Asia/Kabul
1171,Albania,Tirana,41.33,19.82,Europe/Tirane
1172,Algeria,Algiers,36.76,3.05,Africa/Algiers
1173,Andorra,Andorra La Vella,42.5,1.52,Europe/Andorra
1174,Angola,Luanda,-8.84,13.23,Africa/Luanda
1175,Antigua and Barbuda,Saint John's,17.12,-61.85,America/Antigua
1176,Argentina,Buenos Aires,-34.59,-58.67,America/Argentina/Buenos_Aires
1177,Armenia,Yerevan,40.18,44.51,Asia/Yerevan
1178,Australia,Canberra,-35.28,149.22,Australia/Sydney
1179,Austria,Vienna,48.2,16.37,Europe/Vienna
1180,Azerbaijan,Baku,40.4,49.88,Asia/Baku
1181,Bahamas,Nassau,25.08,-77.35,America/Nassau
1182,Bahrain,Manama,26.24,50.58,Asia/Bahrain
1183,Bangladesh,Dhaka,23.72,90.41,Asia/Dhaka
1184,Barbados,Bridgetown,13.1,-59.62,America/Barbados
1185,Belarus,Minsk,53.9,27.57,Europe/Minsk
1186,Belgium,Brussels,50.83,4.33,Europe/Brussels
1187,Belize,Belmopan,17.25,-88.77,America/Belize
1188,Benin,Porto-Novo,6.48,2.62,Africa/Porto-Novo
1189,Bhutan,Thimphu,27.48,89.6,Asia/Thimphu
1190,Bolivia,Sucre,-19.04,-65.26,America/La_Paz
1191,Bosnia and Herzegovina,Sarajevo,43.85,18.38,Europe/Sarajevo
1192,Botswana,Gaborone,-24.65,25.91,Africa/Gaborone
1193,Brazil,Bras,-2.08,-58.17,America/Manaus
1194,Brunei Darussalam,Bandar Seri Begawan,4.88,114.93,Asia/Brunei
1195,Bulgaria,Sofia,42.68,23.32,Europe/Sofia
1196,Burkina Faso,Ouagadougou,12.37,-1.52,Africa/Ouagadougou
1197,Burundi,Bujumbura,-3.38,29.36,Africa/Bujumbura
1198,Madagascar,Ivory,-24.37,46.45,Indian/Antananarivo
1199,Cape Verde,Praia,14.93,-23.51,Atlantic/Cape_Verde
1200,Cambodia,Phnom Penh,11.55,104.92,Asia/Phnom_Penh
1201,Cameroon,Bafoussam,5.47,10.42,Africa/Douala
1202,Canada,Ottawa,45.42,-75.7,America/Toronto
1203,Central African Republic,Bangui,4.37,18.58,Africa/Bangui
1204,Chad,N'djamena,12.11,15.05,Africa/Douala
1205,Chile,Santiago,-33.45,-70.67,America/Santiago
1206,China,Beijing,39.93,116.39,Asia/Shanghai
1207,Bulgaria,Bogot,43.32,24.7,Europe/Sofia
1208,Comoros,Moroni,-11.7,43.24,Indian/Comoro
1209,Congo,Brazzaville,-4.26,15.28,Africa/Brazzaville
1210,Costa Rica,San Juan,9.97,-84.08,America/Costa_Rica
1211,Croatia,Zagreb,45.8,16.0,Europe/Zagreb
1212,Cuba,Havana,23.13,-82.36,America/Havana
1213,Cyprus,Nicosia,35.17,33.37,Asia/Famagusta
1214,Czech Republic,Prague,50.08,14.47,Europe/Prague
1215,Democratic Republic of Congo,Kinshasa,-4.3,15.3,Africa/Brazzaville
1216,Denmark,Copenhagen,55.67,12.58,Europe/Copenhagen
1217,Djibouti,Djibouti,11.6,43.15,Africa/Djibouti
1218,Dominica,Roseau,15.3,-61.4,America/Dominica
1219,Dominican Republic,Santo Domingo,18.47,-69.9,America/Santo_Domingo
1220,Ecuador,Quito,-0.22,-78.5,America/Guayaquil
1221,Egypt,Cairo,30.05,31.25,Africa/Cairo
1222,El Salvador,San Salvador,13.71,-89.2,America/El_Salvador
1223,Equatorial Guinea,Malabo,3.75,8.78,Africa/Malabo
1224,Eritrea,Asmara,15.33,38.93,Africa/Asmara
1225,Estonia,Tallinn,59.43,24.73,Europe/Tallinn
1226,Swaziland,Mbabane,-26.32,31.13,Africa/Mbabane
1227,Ethiopia,Addis Ababa,9.03,38.7,Africa/Addis_Ababa
1228,Fiji Islands,Suva,-18.13,178.42,Pacific/Fiji
1229,Finland,Helsinki,60.18,24.93,Europe/Helsinki
1230,France,Paris,48.87,2.33,Europe/Paris
1231,Gabon,Libreville,0.38,9.45,Africa/Libreville
1232,Gambia,Banjul,13.45,-16.58,Africa/Banjul
1233,Georgia,Tbilisi,41.73,44.79,Asia/Tbilisi
1234,Germany,Berlin,52.52,13.4,Europe/Berlin
1235,Ghana,Accra,5.55,-0.22,Africa/Accra
1236,Greece,Athens,37.98,23.72,Europe/Athens
1237,Grenada,Saint George's,12.05,-61.75,America/Grenada
1238,Guatemala,Guatemala City,14.62,-90.53,America/Guatemala
1239,Guinea,Conakry,9.51,-13.71,Africa/Conakry
1240,Guinea-Bissau,Bissau,11.85,-15.58,Africa/Bissau
1241,Guyana,Georgetown,6.8,-58.17,America/Guyana
1242,Haiti,Port-Au-Prince,18.54,-72.34,America/Port-au-Prince
1243,Vatican City,Vatican City,41.9,12.45,Europe/Rome
1244,Honduras,Tegucigalpa,14.1,-87.22,America/Tegucigalpa
1245,Hungary,Budapest,47.5,19.08,Europe/Budapest
1246,Iceland,Hella,63.83,-20.4,Atlantic/Reykjavik
1247,India,New Delhi,28.6,77.2,Asia/Kolkata
1248,Indonesia,Jakarta,-6.21,106.85,Asia/Jakarta
1249,Iran,Tehran,35.73,51.33,Asia/Tehran
1250,Iraq,Baghdad,33.34,44.39,Asia/Baghdad
1251,Ireland,Dublin,53.33,-6.25,Europe/Dublin
1252,Israel,Jerusalem,31.78,35.23,Asia/Jerusalem
1253,Italy,Rome,41.9,12.48,Europe/Rome
1254,Jamaica,Norman Gardens,17.97,-76.75,America/Jamaica
1255,Japan,Tokyo,35.69,139.69,Asia/Tokyo
1256,Jordan,Amman,31.95,35.93,Asia/Amman
1257,Kazakhstan,Astana,51.18,71.43,Asia/Almaty
1258,Kenya,Nairobi,-1.28,36.82,Africa/Nairobi
1259,Kiribati,Tarawa,-0.88,169.53,Pacific/Tarawa
1260,Kuwait,Kuwait City,29.37,47.96,Asia/Kuwait
1261,Kyrghyzstan,Bishkek,42.87,74.6,Asia/Bishkek
1262,Indonesia,Laos,-8.18,114.32,Asia/Jakarta
1263,Latvia,Riga,56.95,24.1,Europe/Riga
1264,Lebanon,Beirut,33.87,35.51,Asia/Beirut
1265,Lesotho,Maseru,-29.32,27.48,Africa/Johannesburg
1266,Liberia,Monrovia,6.31,-10.8,Africa/Monrovia
1267,Thailand,Nan,18.78,100.78,Asia/Bangkok
1268,Liechtenstein,Vaduz,47.13,9.52,Europe/Vaduz
1269,Lithuania,Vilnius,54.68,25.32,Europe/Vilnius
1270,Luxembourg,Luxembourg,49.61,6.13,Europe/Luxembourg
1271,Madagascar,Antananarivo,-18.92,47.52,Indian/Antananarivo
1272,Malawi,Lilongwe,-13.98,33.78,Africa/Blantyre
1273,Malaysia,Kuala Lumpur,3.17,101.7,Asia/Kuala_Lumpur
1274,Maldives,Farukolhufunadhoo,6.15,73.27,Indian/Maldives
1275,Mali,Bamako,12.65,-8.0,Africa/Bamako
1276,Malta,Valletta,35.9,14.51,Europe/Malta
1277,Marshall Islands,Majuro,7.1,171.38,Pacific/Majuro
1278,Mauritania,Nouakchott,18.09,-15.98,Africa/Nouakchott
1279,Mauritius,Port Louis,-20.16,57.5,Indian/Mauritius
1280,Mexico,Mexico City,19.43,-99.13,America/Mexico_City
1281,Micronesia,Palikir,6.92,158.15,Pacific/Pohnpei
1282,Russia,Chi-Chi-Erh,51.7,94.45,Asia/Krasnoyarsk
1283,Monaco,Monaco,43.73,7.42,Europe/Monaco
1284,Mongolia,Ulaanbaatar,47.92,106.92,Asia/Ulaanbaatar
1285,Montenegro,Podgorica,42.44,19.26,Europe/Podgorica
1286,Morocco,Rabat,34.03,-6.84,Africa/Casablanca
1287,Mozambique,Maputo,-25.97,32.59,Africa/Maputo
1288,Myanmar,Pathein,16.78,94.73,Asia/Yangon
1289,Namibia,Windhoek,-22.57,17.08,Africa/Windhoek
1290,Turkey,Yaren,39.55,27.62,Europe/Istanbul
1291,Nepal,Kathmandu,27.72,85.32,Asia/Kathmandu
1292,Netherlands,Amsterdam,52.37,4.89,Europe/Amsterdam
1293,New Zealand,Wellington,-41.3,174.78,Pacific/Auckland
1294,Nicaragua,Managua,12.15,-86.27,America/Managua
1295,Niger,Niamey,13.52,2.12,Africa/Niamey
1296,Nigeria,Abuja,9.18,7.18,Africa/Lagos
1297,North Korea,Pyongyang,39.02,125.75,Asia/Pyongyang
1298,Macedonia,Skopje,42.0,21.43,Europe/Skopje
1299,Norway,Oslo,59.92,10.75,Europe/Oslo
1300,Oman,Muscat,23.61,58.59,Asia/Muscat
1301,Pakistan,Islamabad,33.7,73.17,Asia/Karachi
1302,Palau,Adkip,7.36,134.51,Pacific/Palau
1303,Bolivia,National,-11.18,-67.08,America/La_Paz
1304,Panama,Panama City,8.97,-79.53,America/Panama
1305,Papua New Guinea,Port Moresby,-9.46,147.19,Pacific/Port_Moresby
1306,Paraguay,Carreria,-21.55,-58.12,America/Asuncion
1307,Peru,Lima,-12.05,-77.05,America/Lima
1308,Philippines,Manila,14.6,120.98,Asia/Manila
1309,Poland,Warsaw,52.25,21.0,Europe/Warsaw
1310,Portugal,Lisbon,38.72,-9.13,Europe/Lisbon
1311,Qatar,Doha,25.29,51.53,Asia/Qatar
1312,Romania,Bucharest,44.43,26.1,Europe/Bucharest
1313,Russia,Moscow,55.75,37.62,Europe/Moscow
1314,Rwanda,Kigali,-1.95,30.06,Africa/Kigali
1315,Saint Kitts and Nevis,Basseterre,17.3,-62.72,America/St_Kitts
1316,Saint Lucia,Castries,14.0,-61.0,America/St_Lucia
1317,Saint Vincent and the Grenadines,Kingstown,13.13,-61.22,America/St_Vincent
1318,Samoa,Apia,-13.83,-171.73,Pacific/Apia
1319,San Marino,San Marino,43.93,12.45,Europe/Rome
1320,Belgium,'S-Gravenwezel,51.27,4.55,Europe/Brussels
1321,Saudi Arabia,Riyadh,24.64,46.77,Asia/Riyadh
1322,Senegal,Dakar,14.67,-17.44,Africa/Dakar
1323,Serbia,Belgrade,44.8,20.47,Europe/Belgrade
1324,Seychelles Islands,Victoria,-4.62,55.45,Indian/Mahe
1325,Sierra Leone,Freetown,8.49,-13.23,Africa/Freetown
1326,Singapore,Singapore,1.29,103.86,Asia/Singapore
1327,Slovakia,Bratislava,48.15,17.12,Europe/Bratislava
1328,Slovenia,Ljubljana,46.06,14.51,Europe/Ljubljana
1329,Solomon Islands,Honiara,-9.43,159.95,Pacific/Guadalcanal
1330,Somalia,Mogadishu,2.07,45.37,Africa/Mogadishu
1331,South Africa,Pretoria,-25.75,28.19,Africa/Johannesburg
1332,South Korea,Seoul,37.57,127.0,Asia/Seoul
1333,Sudan,Juba,12.15,24.45,Africa/Khartoum
1334,Spain,Madrid,40.4,-3.68,Europe/Madrid
1335,Sri Lanka,Colombo,6.93,79.85,Asia/Colombo
1336,Sudan,Khartoum,15.59,32.53,Africa/Khartoum
1337,Suriname,Paramaribo,5.83,-55.17,America/Paramaribo
1338,Sweden,Stockholm,59.33,18.05,Europe/Stockholm
1339,Switzerland,Bern,46.92,7.47,Europe/Zurich
1340,Syria,Damascus,33.5,36.3,Asia/Damascus
1341,Tajikistan,Dushanbe,38.56,68.77,Asia/Dushanbe
1342,Tanzania,Dodoma,-6.18,35.75,Africa/Dar_es_Salaam
1343,Thailand,Bangkok,13.75,100.52,Asia/Bangkok
1344,Indonesia,Murong Timor,-7.56,112.27,Asia/Jakarta
1345,Bulgaria,Lom,43.81,23.24,Europe/Bucharest
1346,Tonga,Nuku`Aloia,-21.13,-175.2,Pacific/Tongatapu
1347,Trinidad and Tobago,Port Of Spain,10.65,-61.52,America/Port_of_Spain
1348,Tunisia,Tunis,36.8,10.18,Africa/Tunis
1349,Turkey,Ankara,39.93,32.86,Europe/Istanbul
1350,Turkmenistan,Ashgabat,37.95,58.38,Asia/Ashgabat
1351,Tuvalu,Funafuti,-8.52,179.22,Pacific/Funafuti
1352,Uganda,Kampala,0.32,32.57,Africa/Kampala
1353,Ukraine,Lviv,49.83,24.0,Europe/Kiev
1354,United Arab Emirates,Abu Dhabi,24.47,54.37,Asia/Dubai
1355,United Kingdom,London,51.52,-0.11,Europe/London
1356,United States of America,Washington Park,46.6,-120.49,America/Los_Angeles
1357,Uruguay,Montevideo,-34.86,-56.17,America/Montevideo
1358,Uzbekistan,Tashkent,41.32,69.25,Asia/Tashkent
1359,Vanuatu,Port Vila,-17.73,168.32,Pacific/Efate
1360,Venezuela,Caracas,10.5,-66.92,America/Caracas
1361,Vietnam,Hanoi,21.03,105.85,Asia/Bangkok
1362,Yemen,Sanaa,15.35,44.21,Asia/Aden
1363,Zambia,Lusaka,-15.42,28.28,Africa/Lusaka
1364,Zimbabwe,Harare,-17.82,31.04,Africa/Harare
1365,Afghanistan,Kabul,34.52,69.18,Asia/Kabul
1366,Albania,Tirana,41.33,19.82,Europe/Tirane
1367,Algeria,Algiers,36.76,3.05,Africa/Algiers
1368,Andorra,Andorra La Vella,42.5,1.52,Europe/Andorra
1369,Angola,Luanda,-8.84,13.23,Africa/Luanda
1370,Antigua and Barbuda,Saint John's,17.12,-61.85,America/Antigua
1371,Argentina,Buenos Aires,-34.59,-58.67,America/Argentina/Buenos_Aires
1372,Armenia,Yerevan,40.18,44.51,Asia/Yerevan
1373,Australia,Canberra,-35.28,149.22,Australia/Sydney
1374,Austria,Vienna,48.2,16.37,Europe/Vienna
1375,Azerbaijan,Baku,40.4,49.88,Asia/Baku
1376,Bahamas,Nassau,25.08,-77.35,America/Nassau
1377,Bahrain,Manama,26.24,50.58,Asia/Bahrain
1378,Bangladesh,Dhaka,23.72,90.41,Asia/Dhaka
1379,Barbados,Bridgetown,13.1,-59.62,America/Barbados
1380,Belarus,Minsk,53.9,27.57,Europe/Minsk
1381,Belgium,Brussels,50.83,4.33,Europe/Brussels
1382,Belize,Belmopan,17.25,-88.77,America/Belize
1383,Benin,Porto-Novo,6.48,2.62,Africa/Porto-Novo
1384,Bhutan,Thimphu,27.48,89.6,Asia/Thimphu
1385,Bolivia,Sucre,-19.04,-65.26,America/La_Paz
1386,Bosnia and Herzegovina,Sarajevo,43.85,18.38,Europe/Sarajevo
1387,Botswana,Gaborone,-24.65,25.91,Africa/Gaborone
1388,Brazil,Bras,-2.08,-58.17,America/Manaus
1389,Brunei Darussalam,Bandar Seri Begawan,4.88,114.93,Asia/Brunei
1390,Bulgaria,Sofia,42.68,23.32,Europe/Sofia
1391,Burkina Faso,Ouagadougou,12.37,-1.52,Africa/Ouagadougou
1392,Burundi,Bujumbura,-3.38,29.36,Africa/Bujumbura
1393,Madagascar,Ivory,-24.37,46.45,Indian/Antananarivo
1394,Cape Verde,Praia,14.93,-23.51,Atlantic/Cape_Verde
1395,Cambodia,Phnom Penh,11.55,104.92,Asia/Phnom_Penh
1396,Cameroon,Bafoussam,5.47,10.42,Africa/Douala
1397,Canada,Ottawa,45.42,-75.7,America/Toronto
1398,Central African Republic,Bangui,4.37,18.58,Africa/Bangui
1399,Chad,N'djamena,12.11,15.05,Africa/Douala
1400,Chile,Santiago,-33.45,-70.67,America/Santiago
1401,China,Beijing,39.93,116.39,Asia/Shanghai
1402,Bulgaria,Bogot,43.32,24.7,Europe/Sofia
1403,Comoros,Moroni,-11.7,43.24,Indian/Comoro
1404,Congo,Brazzaville,-4.26,15.28,Africa/Brazzaville
1405,Costa Rica,San Juan,9.97,-84.08,America/Costa_Rica
1406,Croatia,Zagreb,45.8,16.0,Europe/Zagreb
1407,Cuba,Havana,23.13,-82.36,America/Havana
1408,Cyprus,Nicosia,35.17,33.37,Asia/Famagusta
1409,Czech Republic,Prague,50.08,14.47,Europe/Prague
1410,Democratic Republic of Congo,Kinshasa,-4.3,15.3,Africa/Brazzaville
1411,Denmark,Copenhagen,55.67,12.58,Europe/Copenhagen
1412,Djibouti,Djibouti,11.6,43.15,Africa/Djibouti
1413,Dominica,Roseau,15.3,-61.4,America/Dominica
1414,Dominican Republic,Santo Domingo,18.47,-69.9,America/Santo_Domingo
1415,Ecuador,Quito,-0.22,-78.5,America/Guayaquil
1416,Egypt,Cairo,30.05,31.25,Africa/Cairo
1417,El Salvador,San Salvador,13.71,-89.2,America/El_Salvador
1418,Equatorial Guinea,Malabo,3.75,8.78,Africa/Malabo
1419,Eritrea,Asmara,15.33,38.93,Africa/Asmara
1420,Estonia,Tallinn,59.43,24.73,Europe/Tallinn
1421,Swaziland,Mbabane,-26.32,31.13,Africa/Mbabane
1422,Ethiopia,Addis Ababa,9.03,38.7,Africa/Addis_Ababa
1423,Fiji Islands,Suva,-18.13,178.42,Pacific/Fiji
1424,Finland,Helsinki,60.18,24.93,Europe/Helsinki
1425,France,Paris,48.87,2.33,Europe/Paris
1426,Gabon,Libreville,0.38,9.45,Africa/Libreville
1427,Gambia,Banjul,13.45,-16.58,Africa/Banjul
1428,Georgia,Tbilisi,41.73,44.79,Asia/Tbilisi
1429,Germany,Berlin,52.52,13.4,Europe/Berlin
1430,Ghana,Accra,5.55,-0.22,Africa/Accra
1431,Greece,Athens,37.98,23.72,Europe/Athens
1432,Grenada,Saint George's,12.05,-61.75,America/Grenada
1433,Guatemala,Guatemala City,14.62,-90.53,America/Guatemala
1434,Guinea,Conakry,9.51,-13.71,Africa/Conakry
1435,Guinea-Bissau,Bissau,11.85,-15.58,Africa/Bissau
1436,Guyana,Georgetown,6.8,-58.17,America/Guyana
1437,Haiti,Port-Au-Prince,18.54,-72.34,America/Port-au-Prince
1438,Vatican City,Vatican City,41.9,12.45,Europe/Rome
1439,Honduras,Tegucigalpa,14.1,-87.22,America/Tegucigalpa
1440,Hungary,Budapest,47.5,19.08,Europe/Budapest
1441,Iceland,Hella,63.83,-20.4,Atlantic/Reykjavik
1442,India,New Delhi,28.6,77.2,Asia/Kolkata
1443,Indonesia,Jakarta,-6.21,106.85,Asia/Jakarta
1444,Iran,Tehran,35.73,51.33,Asia/Tehran
1445,Iraq,Baghdad,33.34,44.39,Asia/Baghdad
1446,Ireland,Dublin,53.33,-6.25,Europe/Dublin
1447,Israel,Jerusalem,31.78,35.23,Asia/Jerusalem
1448,Italy,Rome,41.9,12.48,Europe/Rome
1449,Jamaica,Norman Gardens,17.97,-76.75,America/Jamaica
1450,Japan,Tokyo,35.69,139.69,Asia/Tokyo
1451,Jordan,Amman,31.95,35.93,Asia/Amman
1452,Kazakhstan,Astana,51.18,71.43,Asia/Almaty
1453,Kenya,Nairobi,-1.28,36.82,Africa/Nairobi
1454,Kiribati,Tarawa,-0.88,169.53,Pacific/Tarawa
1455,Kuwait,Kuwait City,29.37,47.96,Asia/Kuwait
1456,Kyrghyzstan,Bishkek,42.87,74.6,Asia/Bishkek
1457,Indonesia,Laos,-8.18,114.32,Asia/Jakarta
1458,Latvia,Riga,56.95,24.1,Europe/Riga
1459,Lebanon,Beirut,33.87,35.51,Asia/Beirut
1460,Lesotho,Maseru,-29.32,27.48,Africa/Johannesburg
1461,Liberia,Monrovia,6.31,-10.8,Africa/Monrovia
1462,Thailand,Nan,18.78,100.78,Asia/Bangkok
1463,Liechtenstein,Vaduz,47.13,9.52,Europe/Vaduz
1464,Lithuania,Vilnius,54.68,25.32,Europe/Vilnius
1465,Luxembourg,Luxembourg,49.61,6.13,Europe/Luxembourg
1466,Madagascar,Antananarivo,-18.92,47.52,Indian/Antananarivo
1467,Malawi,Lilongwe,-13.98,33.78,Africa/Blantyre
1468,Malaysia,Kuala Lumpur,3.17,101.7,Asia/Kuala_Lumpur
1469,Maldives,Farukolhufunadhoo,6.15,73.27,Indian/Maldives
1470,Mali,Bamako,12.65,-8.0,Africa/Bamako
1471,Malta,Valletta,35.9,14.51,Europe/Malta
1472,Marshall Islands,Majuro,7.1,171.38,Pacific/Majuro
1473,Mauritania,Nouakchott,18.09,-15.98,Africa/Nouakchott
1474,Mauritius,Port Louis,-20.16,57.5,Indian/Mauritius
1475,Mexico,Mexico City,19.43,-99.13,America/Mexico_City
1476,Micronesia,Palikir,6.92,158.15,Pacific/Pohnpei
1477,Russia,Chi-Chi-Erh,51.7,94.45,Asia/Krasnoyarsk
1478,Monaco,Monaco,43.73,7.42,Europe/Monaco
1479,Mongolia,Ulaanbaatar,47.92,106.92,Asia/Ulaanbaatar
1480,Montenegro,Podgorica,42.44,19.26,Europe/Podgorica
1481,Morocco,Rabat,34.03,-6.84,Africa/Casablanca
1482,Mozambique,Maputo,-25.97,32.59,Africa/Maputo
1483,Myanmar,Pathein,16.78,94.73,Asia/Yangon
1484,Namibia,Windhoek,-22.57,17.08,Africa/Windhoek
1485,Turkey,Yaren,39.55,27.62,Europe/Istanbul
1486,Nepal,Kathmandu,27.72,85.32,Asia/Kathmandu
1487,Netherlands,Amsterdam,52.37,4.89,Europe/Amsterdam
1488,New Zealand,Wellington,-41.3,174.78,Pacific/Auckland
1489,Nicaragua,Managua,12.15,-86.27,America/Managua
1490,Niger,Niamey,13.52,2.12,Africa/Niamey
1491,Nigeria,Abuja,9.18,7.18,Africa/Lagos
1492,North Korea,Pyongyang,39.02,125.75,Asia/Pyongyang
1493,Macedonia,Skopje,42.0,21.43,Europe/Skopje
1494,Norway,Oslo,59.92,10.75,Europe/Oslo
1495,Oman,Muscat,23.61,58.59,Asia/Muscat
1496,Pakistan,Islamabad,33.7,73.17,Asia/Karachi
1497,Palau,Adkip,7.36,134.51,Pacific/Palau
1498,Bolivia,National,-11.18,-67.08,America/La_Paz
1499,Panama,Panama City,8.97,-79.53,America/Panama
1500,Papua New Guinea,Port Moresby,-9.46,147.19,Pacific/Port_Moresby
1501,Paraguay,Carreria,-21.55,-58.12,America/Asuncion
1502,Peru,Lima,-12.05,-77.05,America/Lima
1503,Philippines,Manila,14.6,120.98,Asia/Manila
1504,Poland,Warsaw,52.25,21.0,Europe/Warsaw
1505,Portugal,Lisbon,38.72,-9.13,Europe/Lisbon
1506,Qatar,Doha,25.29,51.53,Asia/Qatar
1507,Romania,Bucharest,44.43,26.1,Europe/Bucharest
1508,Russia,Moscow,55.75,37.62,Europe/Moscow
1509,Rwanda,Kigali,-1.95,30.06,Africa/Kigali
1510,Saint Kitts and Nevis,Basseterre,17.3,-62.72,America/St_Kitts
1511,Saint Lucia,Castries,14.0,-61.0,America/St_Lucia
1512,Saint Vincent and the Grenadines,Kingstown,13.13,-61.22,America/St_Vincent
1513,Samoa,Apia,-13.83,-171.73,Pacific/Apia
1514,San Marino,San Marino,43.93,12.45,Europe/Rome
1515,Belgium,'S-Gravenwezel,51.27,4.55,Europe/Brussels
1516,Saudi Arabia,Riyadh,24.64,46.77,Asia/Riyadh
1517,Senegal,Dakar,14.67,-17.44,Africa/Dakar
1518,Serbia,Belgrade,44.8,20.47,Europe/Belgrade
1519,Seychelles Islands,Victoria,-4.62,55.45,Indian/Mahe
1520,Sierra Leone,Freetown,8.49,-13.23,Africa/Freetown
1521,Singapore,Singapore,1.29,103.86,Asia/Singapore
1522,Slovakia,Bratislava,48.15,17.12,Europe/Bratislava
1523,Slovenia,Ljubljana,46.06,14.51,Europe/Ljubljana
1524,Solomon Islands,Honiara,-9.43,159.95,Pacific/Guadalcanal
1525,Somalia,Mogadishu,2.07,45.37,Africa/Mogadishu
1526,South Africa,Pretoria,-25.75,28.19,Africa/Johannesburg
1527,South Korea,Seoul,37.57,127.0,Asia/Seoul
1528,Sudan,Juba,12.15,24.45,Africa/Khartoum
1529,Spain,Madrid,40.4,-3.68,Europe/Madrid
1530,Sri Lanka,Colombo,6.93,79.85,Asia/Colombo
1531,Sudan,Khartoum,15.59,32.53,Africa/Khartoum
1532,Suriname,Paramaribo,5.83,-55.17,America/Paramaribo
1533,Sweden,Stockholm,59.33,18.05,Europe/Stockholm
1534,Switzerland,Bern,46.92,7.47,Europe/Zurich
1535,Syria,Damascus,33.5,36.3,Asia/Damascus
1536,Tajikistan,Dushanbe,38.56,68.77,Asia/Dushanbe
1537,Tanzania,Dodoma,-6.18,35.75,Africa/Dar_es_Salaam
1538,Thailand,Bangkok,13.75,100.52,Asia/Bangkok
1539,Indonesia,Murong Timor,-7.56,112.27,Asia/Jakarta
1540,Bulgaria,Lom,43.81,23.24,Europe/Bucharest
1541,Tonga,Nuku`Aloia,-21.13,-175.2,Pacific/Tongatapu
1542,Trinidad and Tobago,Port Of Spain,10.65,-61.52,America/Port_of_Spain
1543,Tunisia,Tunis,36.8,10.18,Africa/Tunis
1544,Turkey,Ankara,39.93,32.86,Europe/Istanbul
1545,Turkmenistan,Ashgabat,37.95,58.38,Asia/Ashgabat
1546,Tuvalu,Funafuti,-8.52,179.22,Pacific/Funafuti
1547,Uganda,Kampala,0.32,32.57,Africa/Kampala
1548,Ukraine,Lviv,49.83,24.0,Europe/Kiev
1549,United Arab Emirates,Abu Dhabi,24.47,54.37,Asia/Dubai
1550,United Kingdom,London,51.52,-0.11,Europe/London
1551,United States of America,Washington Park,46.6,-120.49,America/Los_Angeles
1552,Uruguay,Montevideo,-34.86,-56.17,America/Montevideo
1553,Uzbekistan,Tashkent,41.32,69.25,Asia/Tashkent
1554,Vanuatu,Port Vila,-17.73,168.32,Pacific/Efate
1555,Venezuela,Caracas,10.5,-66.92,America/Caracas
1556,Vietnam,Hanoi,21.03,105.85,Asia/Bangkok
1557,Yemen,Sanaa,15.35,44.21,Asia/Aden
1558,Zambia,Lusaka,-15.42,28.28,Africa/Lusaka
1559,Zimbabwe,Harare,-17.82,31.04,Africa/Harare
1560,Afghanistan,Kabul,34.52,69.18,Asia/Kabul
1561,Albania,Tirana,41.33,19.82,Europe/Tirane
1562,Algeria,Algiers,36.76,3.05,Africa/Algiers
1563,Andorra,Andorra La Vella,42.5,1.52,Europe/Andorra
1564,Angola,Luanda,-8.84,13.23,Africa/Luanda
1565,Antigua and Barbuda,Saint John's,17.12,-61.85,America/Antigua
1566,Argentina,Buenos Aires,-34.59,-58.67,America/Argentina/Buenos_Aires
1567,Armenia,Yerevan,40.18,44.51,Asia/Yerevan
1568,Australia,Canberra,-35.28,149.22,Australia/Sydney
1569,Austria,Vienna,48.2,16.37,Europe/Vienna
1570,Azerbaijan,Baku,40.4,49.88,Asia/Baku
1571,Bahamas,Nassau,25.08,-77.35,America/Nassau
1572,Bahrain,Manama,26.24,50.58,Asia/Bahrain
1573,Bangladesh,Dhaka,23.72,90.41,Asia/Dhaka
1574,Barbados,Bridgetown,13.1,-59.62,America/Barbados
1575,Belarus,Minsk,53.9,27.57,Europe/Minsk
1576,Belgium,Brussels,50.83,4.33,Europe/Brussels
1577,Belize,Belmopan,17.25,-88.77,America/Belize
1578,Benin,Porto-Novo,6.48,2.62,Africa/Porto-Novo
1579,Bhutan,Thimphu,27.48,89.6,Asia/Thimphu
1580,Bolivia,Sucre,-19.04,-65.26,America/La_Paz
1581,Bosnia and Herzegovina,Sarajevo,43.85,18.38,Europe/Sarajevo
1582,Botswana,Gaborone,-24.65,25.91,Africa/Gaborone
1583,Brazil,Bras,-2.08,-58.17,America/Manaus
1584,Brunei Darussalam,Bandar Seri Begawan,4.88,114.93,Asia/Brunei
1585,Bulgaria,Sofia,42.68,23.32,Europe/Sofia
1586,Burkina Faso,Ouagadougou,12.37,-1.52,Africa/Ouagadougou
1587,Burundi,Bujumbura,-3.38,29.36,Africa/Bujumbura
1588,Madagascar,Ivory,-24.37,46.45,Indian/Antananarivo
1589,Cape Verde,Praia,14.93,-23.51,Atlantic/Cape_Verde
1590,Cambodia,Phnom Penh,11.55,104.92,Asia/Phnom_Penh
1591,Cameroon,Bafoussam,5.47,10.42,Africa/Douala
1592,Canada,Ottawa,45.42,-75.7,America/Toronto
1593,Central African Republic,Bangui,4.37,18.58,Africa/Bangui
1594,Chad,N'djamena,12.11,15.05,Africa/Douala
1595,Chile,Santiago,-33.45,-70.67,America/Santiago
1596,China,Beijing,39.93,116.39,Asia/Shanghai
1597,Bulgaria,Bogot,43.32,24.7,Europe/Sofia
1598,Comoros,Moroni,-11.7,43.24,Indian/Comoro
1599,Congo,Brazzaville,-4.26,15.28,Africa/Brazzaville
1600,Costa Rica,San Juan,9.97,-84.08,America/Costa_Rica
1601,Croatia,Zagreb,45.8,16.0,Europe/Zagreb
1602,Cuba,Havana,23.13,-82.36,America/Havana
1603,Cyprus,Nicosia,35.17,33.37,Asia/Famagusta
1604,Czech Republic,Prague,50.08,14.47,Europe/Prague
1605,Democratic Republic of Congo,Kinshasa,-4.3,15.3,Africa/Brazzaville
1606,Denmark,Copenhagen,55.67,12.58,Europe/Copenhagen
1607,Djibouti,Djibouti,11.6,43.15,Africa/Djibouti
1608,Dominica,Roseau,15.3,-61.4,America/Dominica
1609,Dominican Republic,Santo Domingo,18.47,-69.9,America/Santo_Domingo
1610,Ecuador,Quito,-0.22,-78.5,America/Guayaquil
1611,Egypt,Cairo,30.05,31.25,Africa/Cairo
1612,El Salvador,San Salvador,13.71,-89.2,America/El_Salvador
1613,Equatorial Guinea,Malabo,3.75,8.78,Africa/Malabo
1614,Eritrea,Asmara,15.33,38.93,Africa/Asmara
1615,Estonia,Tallinn,59.43,24.73,Europe/Tallinn
1616,Swaziland,Mbabane,-26.32,31.13,Africa/Mbabane
1617,Ethiopia,Addis Ababa,9.03,38.7,Africa/Addis_Ababa
1618,Fiji Islands,Suva,-18.13,178.42,Pacific/Fiji
1619,Finland,Helsinki,60.18,24.93,Europe/Helsinki
1620,France,Paris,48.87,2.33,Europe/Paris
1621,Gabon,Libreville,0.38,9.45,Africa/Libreville
1622,Gambia,Banjul,13.45,-16.58,Africa/Banjul
1623,Georgia,Tbilisi,41.73,44.79,Asia/Tbilisi
1624,Germany,Berlin,52.52,13.4,Europe/Berlin
1625,Ghana,Accra,5.55,-0.22,Africa/Accra
1626,Greece,Athens,37.98,23.72,Europe/Athens
1627,Grenada,Saint George's,12.05,-61.75,America/Grenada
1628,Guatemala,Guatemala City,14.62,-90.53,America/Guatemala
1629,Guinea,Conakry,9.51,-13.71,Africa/Conakry
1630,Guinea-Bissau,Bissau,11.85,-15.58,Africa/Bissau
1631,Guyana,Georgetown,6.8,-58.17,America/Guyana
1632,Haiti,Port-Au-Prince,18.54,-72.34,America/Port-au-Prince
1633,Vatican City,Vatican City,41.9,12.45,Europe/Rome
1634,Honduras,Tegucigalpa,14.1,-87.22,America/Tegucigalpa
1635,Hungary,Budapest,47.5,19.08,Europe/Budapest
1636,Iceland,Hella,63.83,-20.4,Atlantic/Reykjavik
1637,India,New Delhi,28.6,77.2,Asia/Kolkata
1638,Indonesia,Jakarta,-6.21,106.85,Asia/Jakarta
1639,Iran,Tehran,35.73,51.33,Asia/Tehran
1640,Iraq,Baghdad,33.34,44.39,Asia/Baghdad
1641,Ireland,Dublin,53.33,-6.25,Europe/Dublin
1642,Israel,Jerusalem,31.78,35.23,Asia/Jerusalem
1643,Italy,Rome,41.9,12.48,Europe/Rome
1644,Jamaica,Norman Gardens,17.97,-76.75,America/Jamaica
1645,Japan,Tokyo,35.69,139.69,Asia/Tokyo
1646,Jordan,Amman,31.95,35.93,Asia/Amman
1647,Kazakhstan,Astana,51.18,71.43,Asia/Almaty
1648,Kenya,Nairobi,-1.28,36.82,Africa/Nairobi
1649,Kiribati,Tarawa,-0.88,169.53,Pacific/Tarawa
1650,Kuwait,Kuwait City,29.37,47.96,Asia/Kuwait
1651,Kyrghyzstan,Bishkek,42.87,74.6,Asia/Bishkek
1652,Indonesia,Laos,-8.18,114.32,Asia/Jakarta
1653,Latvia,Riga,56.95,24.1,Europe/Riga
1654,Lebanon,Beirut,33.87,35.51,Asia/Beirut
1655,Lesotho,Maseru,-29.32,27.48,Africa/Johannesburg
1656,Liberia,Monrovia,6.31,-10.8,Africa/Monrovia
1657,Thailand,Nan,18.78,100.78,Asia/Bangkok
1658,Liechtenstein,Vaduz,47.13,9.52,Europe/Vaduz
1659,Lithuania,Vilnius,54.68,25.32,Europe/Vilnius
1660,Luxembourg,Luxembourg,49.61,6.13,Europe/Luxembourg
1661,Madagascar,Antananarivo,-18.92,47.52,Indian/Antananarivo
1662,Malawi,Lilongwe,-13.98,33.78,Africa/Blantyre
1663,Malaysia,Kuala Lumpur,3.17,101.7,Asia/Kuala_Lumpur
1664,Maldives,Farukolhufunadhoo,6.15,73.27,Indian/Maldives
1665,Mali,Bamako,12.65,-8.0,Africa/Bamako
1666,Malta,Valletta,35.9,14.51,Europe/Malta
1667,Marshall Islands,Majuro,7.1,171.38,Pacific/Majuro
1668,Mauritania,Nouakchott,18.09,-15.98,Africa/Nouakchott
1669,Mauritius,Port Louis,-20.16,57.5,Indian/Mauritius
1670,Mexico,Mexico City,19.43,-99.13,America/Mexico_City
1671,Micronesia,Palikir,6.92,158.15,Pacific/Pohnpei
1672,Russia,Chi-Chi-Erh,51.7,94.45,Asia/Krasnoyarsk
1673,Monaco,Monaco,43.73,7.42,Europe/Monaco
1674,Mongolia,Ulaanbaatar,47.92,106.92,Asia/Ulaanbaatar
1675,Montenegro,Podgorica,42.44,19.26,Europe/Podgorica
1676,Morocco,Rabat,34.03,-6.84,Africa/Casablanca
1677,Mozambique,Maputo,-25.97,32.59,Africa/Maputo
1678,Myanmar,Pathein,16.78,94.73,Asia/Yangon
1679,Namibia,Windhoek,-22.57,17.08,Africa/Windhoek
1680,Turkey,Yaren,39.55,27.62,Europe/Istanbul
1681,Nepal,Kathmandu,27.72,85.32,Asia/Kathmandu
1682,Netherlands,Amsterdam,52.37,4.89,Europe/Amsterdam
1683,New Zealand,Wellington,-41.3,174.78,Pacific/Auckland
1684,Nicaragua,Managua,12.15,-86.27,America/Managua
1685,Niger,Niamey,13.52,2.12,Africa/Niamey
1686,Nigeria,Abuja,9.18,7.18,Africa/Lagos
1687,North Korea,Pyongyang,39.02,125.75,Asia/Pyongyang
1688,Macedonia,Skopje,42.0,21.43,Europe/Skopje
1689,Norway,Oslo,59.92,10.75,Europe/Oslo
1690,Oman,Muscat,23.61,58.59,Asia/Muscat
1691,Pakistan,Islamabad,33.7,73.17,Asia/Karachi
1692,Palau,Adkip,7.36,134.51,Pacific/Palau
1693,Bolivia,National,-11.18,-67.08,America/La_Paz
1694,Panama,Panama City,8.97,-79.53,America/Panama
1695,Papua New Guinea,Port Moresby,-9.46,147.19,Pacific/Port_Moresby
1696,Paraguay,Carreria,-21.55,-58.12,America/Asuncion
1697,Peru,Lima,-12.05,-77.05,America/Lima
1698,Philippines,Manila,14.6,120.98,Asia/Manila
1699,Poland,Warsaw,52.25,21.0,Europe/Warsaw
1700,Portugal,Lisbon,38.72,-9.13,Europe/Lisbon
1701,Qatar,Doha,25.29,51.53,Asia/Qatar
1702,Romania,Bucharest,44.43,26.1,Europe/Bucharest
1703,Russia,Moscow,55.75,37.62,Europe/Moscow
1704,Rwanda,Kigali,-1.95,30.06,Africa/Kigali
1705,Saint Kitts and Nevis,Basseterre,17.3,-62.72,America/St_Kitts
1706,Saint Lucia,Castries,14.0,-61.0,America/St_Lucia
1707,Saint Vincent and the Grenadines,Kingstown,13.13,-61.22,America/St_Vincent
1708,Samoa,Apia,-13.83,-171.73,Pacific/Apia
1709,San Marino,San Marino,43.93,12.45,Europe/Rome
1710,Belgium,'S-Gravenwezel,51.27,4.55,Europe/Brussels
1711,Saudi Arabia,Riyadh,24.64,46.77,Asia/Riyadh
1712,Senegal,Dakar,14.67,-17.44,Africa/Dakar
1713,Serbia,Belgrade,44.8,20.47,Europe/Belgrade
1714,Seychelles Islands,Victoria,-4.62,55.45,Indian/Mahe
1715,Sierra Leone,Freetown,8.49,-13.23,Africa/Freetown
1716,Singapore,Singapore,1.29,103.86,Asia/Singapore
1717,Slovakia,Bratislava,48.15,17.12,Europe/Bratislava
1718,Slovenia,Ljubljana,46.06,14.51,Europe/Ljubljana
1719,Solomon Islands,Honiara,-9.43,159.95,Pacific/Guadalcanal
1720,Somalia,Mogadishu,2.07,45.37,Africa/Mogadishu
1721,South Africa,Pretoria,-25.75,28.19,Africa/Johannesburg
1722,South Korea,Seoul,37.57,127.0,Asia/Seoul
1723,Sudan,Juba,12.15,24.45,Africa/Khartoum
1724,Spain,Madrid,40.4,-3.68,Europe/Madrid
1725,Sri Lanka,Colombo,6.93,79.85,Asia/Colombo
1726,Sudan,Khartoum,15.59,32.53,Africa/Khartoum
1727,Suriname,Paramaribo,5.83,-55.17,America/Paramaribo
1728,Sweden,Stockholm,59.33,18.05,Europe/Stockholm
1729,Switzerland,Bern,46.92,7.47,Europe/Zurich
1730,Syria,Damascus,33.5,36.3,Asia/Damascus
1731,Tajikistan,Dushanbe,38.56,68.77,Asia/Dushanbe
1732,Tanzania,Dodoma,-6.18,35.75,Africa/Dar_es_Salaam
1733,Thailand,Bangkok,13.75,100.52,Asia/Bangkok
1734,Indonesia,Murong Timor,-7.56,112.27,Asia/Jakarta
1735,Bulgaria,Lom,43.81,23.24,Europe/Bucharest
1736,Tonga,Nuku`Aloia,-21.13,-175.2,Pacific/Tongatapu
1737,Trinidad and Tobago,Port Of Spain,10.65,-61.52,America/Port_of_Spain
1738,Tunisia,Tunis,36.8,10.18,Africa/Tunis
1739,Turkey,Ankara,39.93,32.86,Europe/Istanbul
1740,Turkmenistan,Ashgabat,37.95,58.38,Asia/Ashgabat
1741,Tuvalu,Funafuti,-8.52,179.22,Pacific/Funafuti
1742,Uganda,Kampala,0.32,32.57,Africa/Kampala
1743,Ukraine,Lviv,49.83,24.0,Europe/Kiev
1744,United Arab Emirates,Abu Dhabi,24.47,54.37,Asia/Dubai
1745,United Kingdom,London,51.52,-0.11,Europe/London
1746,United States of America,Washington Park,46.6,-120.49,America/Los_Angeles
1747,Uruguay,Montevideo,-34.86,-56.17,America/Montevideo
1748,Uzbekistan,Tashkent,41.32,69.25,Asia/Tashkent
1749,Vanuatu,Port Vila,-17.73,168.32,Pacific/Efate
1750,Venezuela,Caracas,10.5,-66.92,America/Caracas
1751,Vietnam,Hanoi,21.03,105.85,Asia/Bangkok
1752,Yemen,Sanaa,15.35,44.21,Asia/Aden
1753,Zambia,Lusaka,-15.42,28.28,Africa/Lusaka
1754,Zimbabwe,Harare,-17.82,31.04,Africa/Harare
1755,Afghanistan,Kabul,34.52,69.18,Asia/Kabul
1756,Albania,Tirana,41.33,19.82,Europe/Tirane
1757,Algeria,Algiers,36.76,3.05,Africa/Algiers
1758,Andorra,Andorra La Vella,42.5,1.52,Europe/Andorra
1759,Angola,Luanda,-8.84,13.23,Africa/Luanda
1760,Antigua and Barbuda,Saint John's,17.12,-61.85,America/Antigua
1761,Argentina,Buenos Aires,-34.59,-58.67,America/Argentina/Buenos_Aires
1762,Armenia,Yerevan,40.18,44.51,Asia/Yerevan
1763,Australia,Canberra,-35.28,149.22,Australia/Sydney
1764,Austria,Vienna,48.2,16.37,Europe/Vienna
1765,Azerbaijan,Baku,40.4,49.88,Asia/Baku
1766,Bahamas,Nassau,25.08,-77.35,America/Nassau
1767,Bahrain,Manama,26.24,50.58,Asia/Bahrain
1768,Bangladesh,Dhaka,23.72,90.41,Asia/Dhaka
1769,Barbados,Bridgetown,13.1,-59.62,America/Barbados
1770,Belarus,Minsk,53.9,27.57,Europe/Minsk
1771,Belgium,Brussels,50.83,4.33,Europe/Brussels
1772,Belize,Belmopan,17.25,-88.77,America/Belize
1773,Benin,Porto-Novo,6.48,2.62,Africa/Porto-Novo
1774,Bhutan,Thimphu,27.48,89.6,Asia/Thimphu
1775,Bolivia,Sucre,-19.04,-65.26,America/La_Paz
1776,Bosnia and Herzegovina,Sarajevo,43.85,18.38,Europe/Sarajevo
1777,Botswana,Gaborone,-24.65,25.91,Africa/Gaborone
1778,Brazil,Bras,-2.08,-58.17,America/Manaus
1779,Brunei Darussalam,Bandar Seri Begawan,4.88,114.93,Asia/Brunei
1780,Bulgaria,Sofia,42.68,23.32,Europe/Sofia
1781,Burkina Faso,Ouagadougou,12.37,-1.52,Africa/Ouagadougou
1782,Burundi,Bujumbura,-3.38,29.36,Africa/Bujumbura
1783,Madagascar,Ivory,-24.37,46.45,Indian/Antananarivo
1784,Cape Verde,Praia,14.93,-23.51,Atlantic/Cape_Verde
1785,Cambodia,Phnom Penh,11.55,104.92,Asia/Phnom_Penh
1786,Cameroon,Bafoussam,5.47,10.42,Africa/Douala
1787,Canada,Ottawa,45.42,-75.7,America/Toronto
1788,Central African Republic,Bangui,4.37,18.58,Africa/Bangui
1789,Chad,N'djamena,12.11,15.05,Africa/Douala
1790,Chile,Santiago,-33.45,-70.67,America/Santiago
1791,China,Beijing,39.93,116.39,Asia/Shanghai
1792,Bulgaria,Bogot,43.32,24.7,Europe/Sofia
1793,Comoros,Moroni,-11.7,43.24,Indian/Comoro
1794,Congo,Brazzaville,-4.26,15.28,Africa/Brazzaville
1795,Costa Rica,San Juan,9.97,-84.08,America/Costa_Rica
1796,Croatia,Zagreb,45.8,16.0,Europe/Zagreb
1797,Cuba,Havana,23.13,-82.36,America/Havana
1798,Cyprus,Nicosia,35.17,33.37,Asia/Famagusta
1799,Czech Republic,Prague,50.08,14.47,Europe/Prague
1800,Democratic Republic of Congo,Kinshasa,-4.3,15.3,Africa/Brazzaville
1801,Denmark,Copenhagen,55.67,12.58,Europe/Copenhagen
1802,Djibouti,Djibouti,11.6,43.15,Africa/Djibouti
1803,Dominica,Roseau,15.3,-61.4,America/Dominica
1804,Dominican Republic,Santo Domingo,18.47,-69.9,America/Santo_Domingo
1805,Ecuador,Quito,-0.22,-78.5,America/Guayaquil
1806,Egypt,Cairo,30.05,31.25,Africa/Cairo
1807,El Salvador,San Salvador,13.71,-89.2,America/El_Salvador
1808,Equatorial Guinea,Malabo,3.75,8.78,Africa/Malabo
1809,Eritrea,Asmara,15.33,38.93,Africa/Asmara
1810,Estonia,Tallinn,59.43,24.73,Europe/Tallinn
1811,Swaziland,Mbabane,-26.32,31.13,Africa/Mbabane
1812,Ethiopia,Addis Ababa,9.03,38.7,Africa/Addis_Ababa
1813,Fiji Islands,Suva,-18.13,178.42,Pacific/Fiji
1814,Finland,Helsinki,60.18,24.93,Europe/Helsinki
1815,France,Paris,48.87,2.33,Europe/Paris
1816,Gabon,Libreville,0.38,9.45,Africa/Libreville
1817,Gambia,Banjul,13.45,-16.58,Africa/Banjul
1818,Georgia,Tbilisi,41.73,44.79,Asia/Tbilisi
1819,Germany,Berlin,52.52,13.4,Europe/Berlin
1820,Ghana,Accra,5.55,-0.22,Africa/Accra
1821,Greece,Athens,37.98,23.72,Europe/Athens
1822,Grenada,Saint George's,12.05,-61.75,America/Grenada
1823,Guatemala,Guatemala City,14.62,-90.53,America/Guatemala
1824,Guinea,Conakry,9.51,-13.71,Africa/Conakry
1825,Guinea-Bissau,Bissau,11.85,-15.58,Africa/Bissau
1826,Guyana,Georgetown,6.8,-58.17,America/Guyana
1827,Haiti,Port-Au-Prince,18.54,-72.34,America/Port-au-Prince
1828,Vatican City,Vatican City,41.9,12.45,Europe/Rome
1829,Honduras,Tegucigalpa,14.1,-87.22,America/Tegucigalpa
1830,Hungary,Budapest,47.5,19.08,Europe/Budapest
1831,Iceland,Hella,63.83,-20.4,Atlantic/Reykjavik
1832,India,New Delhi,28.6,77.2,Asia/Kolkata
1833,Indonesia,Jakarta,-6.21,106.85,Asia/Jakarta
1834,Iran,Tehran,35.73,51.33,Asia/Tehran
1835,Iraq,Baghdad,33.34,44.39,Asia/Baghdad
1836,Ireland,Dublin,53.33,-6.25,Europe/Dublin
1837,Israel,Jerusalem,31.78,35.23,Asia/Jerusalem
1838,Italy,Rome,41.9,12.48,Europe/Rome
1839,Jamaica,Norman Gardens,17.97,-76.75,America/Jamaica
1840,Japan,Tokyo,35.69,139.69,Asia/Tokyo
1841,Jordan,Amman,31.95,35.93,Asia/Amman
1842,Kazakhstan,Astana,51.18,71.43,Asia/Almaty
1843,Kenya,Nairobi,-1.28,36.82,Africa/Nairobi
1844,Kiribati,Tarawa,-0.88,169.53,Pacific/Tarawa
1845,Kuwait,Kuwait City,29.37,47.96,Asia/Kuwait
1846,Kyrghyzstan,Bishkek,42.87,74.6,Asia/Bishkek
1847,Indonesia,Laos,-8.18,114.32,Asia/Jakarta
1848,Latvia,Riga,56.95,24.1,Europe/Riga
1849,Lebanon,Beirut,33.87,35.51,Asia/Beirut
1850,Lesotho,Maseru,-29.32,27.48,Africa/Johannesburg
1851,Liberia,Monrovia,6.31,-10.8,Africa/Monrovia
1852,Thailand,Nan,18.78,100.78,Asia/Bangkok
1853,Liechtenstein,Vaduz,47.13,9.52,Europe/Vaduz
1854,Lithuania,Vilnius,54.68,25.32,Europe/Vilnius
1855,Luxembourg,Luxembourg,49.61,6.13,Europe/Luxembourg
1856,Madagascar,Antananarivo,-18.92,47.52,Indian/Antananarivo
1857,Malawi,Lilongwe,-13.98,33.78,Africa/Blantyre
1858,Malaysia,Kuala Lumpur,3.17,101.7,Asia/Kuala_Lumpur
1859,Maldives,Farukolhufunadhoo,6.15,73.27,Indian/Maldives
1860,Mali,Bamako,12.65,-8.0,Africa/Bamako
1861,Malta,Valletta,35.9,14.51,Europe/Malta
1862,Marshall Islands,Majuro,7.1,171.38,Pacific/Majuro
1863,Mauritania,Nouakchott,18.09,-15.98,Africa/Nouakchott
1864,Mauritius,Port Louis,-20.16,57.5,Indian/Mauritius
1865,Mexico,Mexico City,19.43,-99.13,America/Mexico_City
1866,Micronesia,Palikir,6.92,158.15,Pacific/Pohnpei
1867,Russia,Chi-Chi-Erh,51.7,94.45,Asia/Krasnoyarsk
1868,Monaco,Monaco,43.73,7.42,Europe/Monaco
1869,Mongolia,Ulaanbaatar,47.92,106.92,Asia/Ulaanbaatar
1870,Montenegro,Podgorica,42.44,19.26,Europe/Podgorica
1871,Morocco,Rabat,34.03,-6.84,Africa/Casablanca
1872,Mozambique,Maputo,-25.97,32.59,Africa/Maputo
1873,Myanmar,Pathein,16.78,94.73,Asia/Yangon
1874,Namibia,Windhoek,-22.57,17.08,Africa/Windhoek
1875,Turkey,Yaren,39.55,27.62,Europe/Istanbul
1876,Nepal,Kathmandu,27.72,85.32,Asia/Kathmandu
1877,Netherlands,Amsterdam,52.37,4.89,Europe/Amsterdam
1878,New Zealand,Wellington,-41.3,174.78,Pacific/Auckland
1879,Nicaragua,Managua,12.15,-86.27,America/Managua
1880,Niger,Niamey,13.52,2.12,Africa/Niamey
1881,Nigeria,Abuja,9.18,7.18,Africa/Lagos
1882,North Korea,Pyongyang,39.02,125.75,Asia/Pyongyang
1883,Macedonia,Skopje,42.0,21.43,Europe/Skopje
1884,Norway,Oslo,59.92,10.75,Europe/Oslo
1885,Oman,Muscat,23.61,58.59,Asia/Muscat
1886,Pakistan,Islamabad,33.7,73.17,Asia/Karachi
1887,Palau,Adkip,7.36,134.51,Pacific/Palau
1888,Bolivia,National,-11.18,-67.08,America/La_Paz
1889,Panama,Panama City,8.97,-79.53,America/Panama
1890,Papua New Guinea,Port Moresby,-9.46,147.19,Pacific/Port_Moresby
1891,Paraguay,Carreria,-21.55,-58.12,America/Asuncion
1892,Peru,Lima,-12.05,-77.05,America/Lima
1893,Philippines,Manila,14.6,120.98,Asia/Manila
1894,Poland,Warsaw,52.25,21.0,Europe/Warsaw
1895,Portugal,Lisbon,38.72,-9.13,Europe/Lisbon
1896,Qatar,Doha,25.29,51.53,Asia/Qatar
1897,Romania,Bucharest,44.43,26.1,Europe/Bucharest
1898,Russia,Moscow,55.75,37.62,Europe/Moscow
1899,Rwanda,Kigali,-1.95,30.06,Africa/Kigali
1900,Saint Kitts and Nevis,Basseterre,17.3,-62.72,America/St_Kitts
1901,Saint Lucia,Castries,14.0,-61.0,America/St_Lucia
1902,Saint Vincent and the Grenadines,Kingstown,13.13,-61.22,America/St_Vincent
1903,Samoa,Apia,-13.83,-171.73,Pacific/Apia
1904,San Marino,San Marino,43.93,12.45,Europe/Rome
1905,Belgium,'S-Gravenwezel,51.27,4.55,Europe/Brussels
1906,Saudi Arabia,Riyadh,24.64,46.77,Asia/Riyadh
1907,Senegal,Dakar,14.67,-17.44,Africa/Dakar
1908,Serbia,Belgrade,44.8,20.47,Europe/Belgrade
1909,Seychelles Islands,Victoria,-4.62,55.45,Indian/Mahe
1910,Sierra Leone,Freetown,8.49,-13.23,Africa/Freetown
1911,Singapore,Singapore,1.29,103.86,Asia/Singapore
1912,Slovakia,Bratislava,48.15,17.12,Europe/Bratislava
1913,Slovenia,Ljubljana,46.06,14.51,Europe/Ljubljana
1914,Solomon Islands,Honiara,-9.43,159.95,Pacific/Guadalcanal
1915,Somalia,Mogadishu,2.07,45.37,Africa/Mogadishu
1916,South Africa,Pretoria,-25.75,28.19,Africa/Johannesburg
1917,South Korea,Seoul,37.57,127.0,Asia/Seoul
1918,Sudan,Juba,12.15,24.45,Africa/Khartoum
1919,Spain,Madrid,40.4,-3.68,Europe/Madrid
1920,Sri Lanka,Colombo,6.93,79.85,Asia/Colombo
1921,Sudan,Khartoum,15.59,32.53,Africa/Khartoum
1922,Suriname,Paramaribo,5.83,-55.17,America/Paramaribo
1923,Sweden,Stockholm,59.33,18.05,Europe/Stockholm
1924,Switzerland,Bern,46.92,7.47,Europe/Zurich
1925,Syria,Damascus,33.5,36.3,Asia/Damascus
1926,Tajikistan,Dushanbe,38.56,68.77,Asia/Dushanbe
1927,Tanzania,Dodoma,-6.18,35.75,Africa/Dar_es_Salaam
1928,Thailand,Bangkok,13.75,100.52,Asia/Bangkok
1929,Indonesia,Murong Timor,-7.56,112.27,Asia/Jakarta
1930,Bulgaria,Lom,43.81,23.24,Europe/Bucharest
1931,Tonga,Nuku`Aloia,-21.13,-175.2,Pacific/Tongatapu
1932,Trinidad and Tobago,Port Of Spain,10.65,-61.52,America/Port_of_Spain
1933,Tunisia,Tunis,36.8,10.18,Africa/Tunis
1934,Turkey,Ankara,39.93,32.86,Europe/Istanbul
1935,Turkmenistan,Ashgabat,37.95,58.38,Asia/Ashgabat
1936,Tuvalu,Funafuti,-8.52,179.22,Pacific/Funafuti
1937,Uganda,Kampala,0.32,32.57,Africa/Kampala
1938,Ukraine,Lviv,49.83,24.0,Europe/Kiev
1939,United Arab Emirates,Abu Dhabi,24.47,54.37,Asia/Dubai
1940,United Kingdom,London,51.52,-0.11,Europe/London
1941,United States of America,Washington Park,46.6,-120.49,America/Los_Angeles
1942,Uruguay,Montevideo,-34.86,-56.17,America/Montevideo
1943,Uzbekistan,Tashkent,41.32,69.25,Asia/Tashkent
1944,Vanuatu,Port Vila,-17.73,168.32,Pacific/Efate
1945,Venezuela,Caracas,10.5,-66.92,America/Caracas
1946,Vietnam,Hanoi,21.03,105.85,Asia/Bangkok
1947,Yemen,Sanaa,15.35,44.21,Asia/Aden
1948,Zambia,Lusaka,-15.42,28.28,Africa/Lusaka
1949,Zimbabwe,Harare,-17.82,31.04,Africa/Harare
1950,Afghanistan,Kabul,34.52,69.18,Asia/Kabul
1951,Albania,Tirana,41.33,19.82,Europe/Tirane
1952,Algeria,Algiers,36.76,3.05,Africa/Algiers
1953,Andorra,Andorra La Vella,42.5,1.52,Europe/Andorra
1954,Angola,Luanda,-8.84,13.23,Africa/Luanda
1955,Antigua and Barbuda,Saint John's,17.12,-61.85,America/Antigua
1956,Argentina,Buenos Aires,-34.59,-58.67,America/Argentina/Buenos_Aires
1957,Armenia,Yerevan,40.18,44.51,Asia/Yerevan
1958,Australia,Canberra,-35.28,149.22,Australia/Sydney
1959,Austria,Vienna,48.2,16.37,Europe/Vienna
1960,Azerbaijan,Baku,40.4,49.88,Asia/Baku
1961,Bahamas,Nassau,25.08,-77.35,America/Nassau
1962,Bahrain,Manama,26.24,50.58,Asia/Bahrain
1963,Bangladesh,Dhaka,23.72,90.41,Asia/Dhaka
1964,Barbados,Bridgetown,13.1,-59.62,America/Barbados
1965,Belarus,Minsk,53.9,27.57,Europe/Minsk
1966,Belgium,Brussels,50.83,4.33,Europe/Brussels
1967,Belize,Belmopan,17.25,-88.77,America/Belize
1968,Benin,Porto-Novo,6.48,2.62,Africa/Porto-Novo
1969,Bhutan,Thimphu,27.48,89.6,Asia/Thimphu
1970,Bolivia,Sucre,-19.04,-65.26,America/La_Paz
1971,Bosnia and Herzegovina,Sarajevo,43.85,18.38,Europe/Sarajevo
1972,Botswana,Gaborone,-24.65,25.91,Africa/Gaborone
1973,Brazil,Bras,-2.08,-58.17,America/Manaus
1974,Brunei Darussalam,Bandar Seri Begawan,4.88,114.93,Asia/Brunei
1975,Bulgaria,Sofia,42.68,23.32,Europe/Sofia
1976,Burkina Faso,Ouagadougou,12.37,-1.52,Africa/Ouagadougou
1977,Burundi,Bujumbura,-3.38,29.36,Africa/Bujumbura
1978,Madagascar,Ivory,-24.37,46.45,Indian/Antananarivo
1979,Cape Verde,Praia,14.93,-23.51,Atlantic/Cape_Verde
1980,Cambodia,Phnom Penh,11.55,104.92,Asia/Phnom_Penh
1981,Cameroon,Bafoussam,5.47,10.42,Africa/Douala
1982,Canada,Ottawa,45.42,-75.7,America/Toronto
1983,Central African Republic,Bangui,4.37,18.58,Africa/Bangui
1984,Chad,N'djamena,12.11,15.05,Africa/Douala
1985,Chile,Santiago,-33.45,-70.67,America/Santiago
1986,China,Beijing,39.93,116.39,Asia/Shanghai
1987,Bulgaria,Bogot,43.32,24.7,Europe/Sofia
1988,Comoros,Moroni,-11.7,43.24,Indian/Comoro
1989,Congo,Brazzaville,-4.26,15.28,Africa/Brazzaville
1990,Costa Rica,San Juan,9.97,-84.08,America/Costa_Rica
1991,Croatia,Zagreb,45.8,16.0,Europe/Zagreb
1992,Cuba,Havana,23.13,-82.36,America/Havana
1993,Cyprus,Nicosia,35.17,33.37,Asia/Famagusta
1994,Czech Republic,Prague,50.08,14.47,Europe/Prague
1995,Democratic Republic of Congo,Kinshasa,-4.3,15.3,Africa/Brazzaville
1996,Denmark,Copenhagen,55.67,12.58,Europe/Copenhagen
1997,Djibouti,Djibouti,11.6,43.15,Africa/Djibouti
